[
    {
        "atm_type": "hsbc",
        "bank_type": "匯豐銀行",
        "name": "匯豐銀行 港鐵落馬洲站 (離境大堂) 理財易中心",
        "area": "新界",
        "district": "北區",
        "address": "港鐵落馬洲站, 一樓車站離境大堂,  LMC 131號舖",
        "detail": null,
        "lat": "22.515134",
        "lng": "114.066625",
        "workHrs": {
            "monday": "06:28 - 23:05",
            "tuesday": "06:28 - 23:05",
            "wednesday": "06:28 - 23:05",
            "thursday": "06:28 - 23:05",
            "friday": "06:28 - 23:05",
            "saturday": "06:28 - 23:05",
            "sunday": "06:28 - 23:05"
        },
        "atm24": false,
        "service": "輪椅通道 (自動櫃員機)\n現金提款 (港幣及人民幣)"
    },
    {
        "atm_type": "hsbc",
        "bank_type": "匯豐銀行",
        "name": "匯豐銀行 加州花園理財易中心",
        "area": "新界",
        "district": "元朗",
        "address": "新界元朗加州花園商業中心G17號舖",
        "detail": null,
        "lat": "22.48641",
        "lng": "114.05412",
        "workHrs": null,
        "atm24": true,
        "service": "現金提款"
    },
    {
        "atm_type": "hsbc",
        "bank_type": "匯豐銀行",
        "name": "匯豐銀行 港鐵羅湖站理財易中心",
        "area": "新界",
        "district": "北區",
        "address": "新界羅湖港鐵羅湖站收費區外2樓",
        "detail": null,
        "lat": "22.52892",
        "lng": "114.11299",
        "workHrs": {
            "monday": "05:55 - 00:30",
            "tuesday": "05:55 - 00:30",
            "wednesday": "05:55 - 00:30",
            "thursday": "05:55 - 00:30",
            "friday": "05:55 - 00:30",
            "saturday": "05:55 - 00:30",
            "sunday": "05:55 - 00:30"
        },
        "atm24": false,
        "service": "輪椅通道 (自動櫃員機)\n現金提款 (港幣及人民幣)"
    },
    {
        "atm_type": "hsbc",
        "bank_type": "匯豐銀行",
        "name": "匯豐銀行 上水理財易中心",
        "area": "新界",
        "district": "北區",
        "address": "新界上水上水新豐路79-81號",
        "detail": null,
        "lat": "22.504174",
        "lng": "114.126969",
        "workHrs": null,
        "atm24": true,
        "service": "現金存款\n支票存款\n現金提款 (港幣及人民幣)"
    },
    {
        "atm_type": "hsbc",
        "bank_type": "匯豐銀行",
        "name": "匯豐銀行 彩園邨自動櫃員機",
        "area": "新界",
        "district": "北區",
        "address": "新界上水彩園邨彩園廣場3樓自動櫃員機3號 (20號舖側)",
        "detail": null,
        "lat": "22.500881",
        "lng": "114.125751",
        "workHrs": null,
        "atm24": true,
        "service": "現金提款\n輪椅通道 (自動櫃員機)"
    },
    {
        "atm_type": "hsbc",
        "bank_type": "匯豐銀行",
        "name": "匯豐銀行 港鐵上水站理財易中心",
        "area": "新界",
        "district": "北區",
        "address": "新界上水港鐵上水站(收費區外)",
        "detail": null,
        "lat": "22.5015",
        "lng": "114.12774",
        "workHrs": null,
        "atm24": true,
        "service": "現金提款 (港幣及人民幣)"
    },
    {
        "atm_type": "hsbc",
        "bank_type": "匯豐銀行",
        "name": "匯豐銀行 上水中心理財易中心",
        "area": "新界",
        "district": "北區",
        "address": "新界上水上水中心商場地下1029號舖",
        "detail": null,
        "lat": "22.500585",
        "lng": "114.130049",
        "workHrs": null,
        "atm24": true,
        "service": "輪椅通道 (自動櫃員機)\n現金存款\n更新存摺簿交易資料\n支票存款\n現金提款 (港幣及人民幣)"
    },
    {
        "atm_type": "hsbc",
        "bank_type": "匯豐銀行",
        "name": "匯豐銀行 清河邨(Circle-K)自動櫃員機",
        "area": "新界",
        "district": "北區",
        "address": "新界粉嶺清河邨清河商場13號舖Circle-K",
        "detail": null,
        "lat": "22.494",
        "lng": "114.12657",
        "workHrs": null,
        "atm24": true,
        "service": "現金提款\n輪椅通道 (自動櫃員機)"
    },
    {
        "atm_type": "hsbc",
        "bank_type": "匯豐銀行",
        "name": "匯豐銀行 良景邨理財易中心",
        "area": "新界",
        "district": "屯門",
        "address": "新界屯門良景邨良景商場213A舖",
        "detail": null,
        "lat": "22.40658",
        "lng": "113.96297",
        "workHrs": null,
        "atm24": true,
        "service": "現金提款\n輪椅通道 (自動櫃員機)\n現金存款\n更新存摺簿交易資料\n支票存款"
    },
    {
        "atm_type": "hsbc",
        "bank_type": "匯豐銀行",
        "name": "匯豐銀行 寶田邨自動櫃員機",
        "area": "新界",
        "district": "屯門",
        "address": "新界屯門寶田邨寶田商場1樓扶手梯側空地(109號舖對面)",
        "detail": null,
        "lat": "22.40938",
        "lng": "113.96658",
        "workHrs": {
            "monday": "06:00 - 00:00",
            "tuesday": "06:00 - 00:00",
            "wednesday": "06:00 - 00:00",
            "thursday": "06:00 - 00:00",
            "friday": "06:00 - 00:00",
            "saturday": "06:00 - 00:00",
            "sunday": "06:00 - 00:00"
        },
        "atm24": false,
        "service": "現金提款\n輪椅通道 (自動櫃員機)"
    },
    {
        "atm_type": "hsbc",
        "bank_type": "匯豐銀行",
        "name": "匯豐銀行 建生邨自動櫃員機",
        "area": "新界",
        "district": "屯門",
        "address": "新界屯門建生邨建生商場2樓206號舖外空地",
        "detail": null,
        "lat": "22.40693",
        "lng": "113.96976",
        "workHrs": null,
        "atm24": true,
        "service": "現金提款\n輪椅通道 (自動櫃員機)"
    },
    {
        "atm_type": "hsbc",
        "bank_type": "匯豐銀行",
        "name": "匯豐銀行 港鐵兆康站理財易中心",
        "area": "新界",
        "district": "屯門",
        "address": "新界屯門港鐵兆康站收費區外30號舖",
        "detail": null,
        "lat": "22.41192",
        "lng": "113.97876",
        "workHrs": {
            "monday": "05:45 - 00:40",
            "tuesday": "05:45 - 00:40",
            "wednesday": "05:45 - 00:40",
            "thursday": "05:45 - 00:40",
            "friday": "05:45 - 00:40",
            "saturday": "05:45 - 00:40",
            "sunday": "05:45 - 00:40"
        },
        "atm24": false,
        "service": "現金提款\n輪椅通道 (自動櫃員機)\n更新存摺簿交易資料"
    },
    {
        "atm_type": "hsbc",
        "bank_type": "匯豐銀行",
        "name": "匯豐銀行 屯門醫院自動櫃員機",
        "area": "新界",
        "district": "屯門",
        "address": "新界屯門青松觀道屯門醫院地下",
        "detail": null,
        "lat": "22.40766",
        "lng": "113.97653",
        "workHrs": null,
        "atm24": true,
        "service": "現金提款"
    },
    {
        "atm_type": "hsbc",
        "bank_type": "匯豐銀行",
        "name": "匯豐銀行 富泰邨理財易中心",
        "area": "新界",
        "district": "屯門",
        "address": "新界屯門屯貴路9號富泰商場地下電梯下(毗鄰3號舖)",
        "detail": null,
        "lat": "22.41367",
        "lng": "113.983",
        "workHrs": null,
        "atm24": true,
        "service": "現金提款\n輪椅通道 (自動櫃員機)"
    },
    {
        "atm_type": "hsbc",
        "bank_type": "匯豐銀行",
        "name": "匯豐銀行 卓爾廣場理財易中心",
        "area": "新界",
        "district": "屯門",
        "address": "新界屯門石排頭路1號卓爾廣場1樓116及126號舖",
        "detail": null,
        "lat": "22.40051",
        "lng": "113.97427",
        "workHrs": {
            "monday": "06:30 - 00:00",
            "tuesday": "06:30 - 00:00",
            "wednesday": "06:30 - 00:00",
            "thursday": "06:30 - 00:00",
            "friday": "06:30 - 00:00",
            "saturday": "06:30 - 00:00",
            "sunday": "06:30 - 00:00"
        },
        "atm24": false,
        "service": "輪椅通道 (自動櫃員機)\n現金存款\n更新存摺簿交易資料\n支票存款\n現金提款 (港幣及人民幣)"
    },
    {
        "atm_type": "hsbc",
        "bank_type": "匯豐銀行",
        "name": "匯豐銀行 錦發大廈理財易中心",
        "area": "新界",
        "district": "屯門",
        "address": "新界屯門井財街9號錦發大廈地下2號舖",
        "detail": null,
        "lat": "22.40321",
        "lng": "113.97813",
        "workHrs": null,
        "atm24": true,
        "service": "現金提款\n輪椅通道 (自動櫃員機)"
    },
    {
        "atm_type": "hsbc",
        "bank_type": "匯豐銀行",
        "name": "匯豐銀行 洪水橋理財易中心",
        "area": "新界",
        "district": "元朗",
        "address": "新界元朗洪水橋大街德祥樓9號舖",
        "detail": null,
        "lat": "22.43276",
        "lng": "113.99589",
        "workHrs": null,
        "atm24": true,
        "service": "現金提款\n輪椅通道 (自動櫃員機)"
    },
    {
        "atm_type": "hsbc",
        "bank_type": "匯豐銀行",
        "name": "匯豐銀行 錦田理財易中心",
        "area": "新界",
        "district": "元朗",
        "address": "新界元朗錦田大馬路40號",
        "detail": null,
        "lat": "22.43992",
        "lng": "114.06681",
        "workHrs": null,
        "atm24": true,
        "service": "現金提款"
    },
    {
        "atm_type": "hsbc",
        "bank_type": "匯豐銀行",
        "name": "匯豐銀行 港鐵錦上路站理財易中心",
        "area": "新界",
        "district": "元朗",
        "address": "新界元朗港鐵錦上路站收費區外1號舖",
        "detail": null,
        "lat": "22.43525",
        "lng": "114.0631",
        "workHrs": null,
        "atm24": true,
        "service": "現金提款\n輪椅通道 (自動櫃員機)"
    },
    {
        "atm_type": "hsbc",
        "bank_type": "匯豐銀行",
        "name": "匯豐銀行 港鐵元朗站理財易中心",
        "area": "新界",
        "district": "元朗",
        "address": "新界元朗港鐵元朗站收費區外19號舖",
        "detail": null,
        "lat": "22.446108",
        "lng": "114.034717",
        "workHrs": null,
        "atm24": true,
        "service": "輪椅通道 (自動櫃員機)\n現金提款 (港幣及人民幣)"
    },
    {
        "atm_type": "hsbc",
        "bank_type": "匯豐銀行",
        "name": "匯豐銀行 安寧路(7-Eleven)自動櫃員機",
        "area": "新界",
        "district": "元朗",
        "address": "新界元朗安寧路8號冠煌樓地下C號舖",
        "detail": null,
        "lat": "22.446154",
        "lng": "114.029583",
        "workHrs": null,
        "atm24": true,
        "service": "現金提款"
    },
    {
        "atm_type": "hsbc",
        "bank_type": "匯豐銀行",
        "name": "匯豐銀行 合益廣場(7-Eleven)自動櫃員機",
        "area": "新界",
        "district": "元朗",
        "address": "新界元朗元朗新街1-49號合益廣場地下A59舖",
        "detail": null,
        "lat": "22.44337",
        "lng": "114.02915",
        "workHrs": null,
        "atm24": true,
        "service": "現金提款"
    },
    {
        "atm_type": "hsbc",
        "bank_type": "匯豐銀行",
        "name": "匯豐銀行 元朗理財易中心",
        "area": "新界",
        "district": "元朗",
        "address": "新界元朗青山公路150-160號 元朗滙豐大廈地下",
        "detail": null,
        "lat": "22.444239",
        "lng": "114.027392",
        "workHrs": null,
        "atm24": true,
        "service": "輪椅通道 (自動櫃員機)\n現金存款\n更新存摺簿交易資料\n支票存款\n現金提款 (港幣及人民幣)"
    },
    {
        "atm_type": "hsbc",
        "bank_type": "匯豐銀行",
        "name": "匯豐銀行 富興大廈(Circle-K) 自動櫃員機",
        "area": "新界",
        "district": "元朗",
        "address": "新界元朗青山公路元朗段218號富興大廈地下A號舖Circle-K便利店",
        "detail": null,
        "lat": "22.4443",
        "lng": "114.02508",
        "workHrs": null,
        "atm24": true,
        "service": "現金提款"
    },
    {
        "atm_type": "hsbc",
        "bank_type": "匯豐銀行",
        "name": "匯豐銀行 港鐵朗屏站理財易中心",
        "area": "新界",
        "district": "元朗",
        "address": "新界元朗港鐵朗屏站收費區外自動櫃員機A02號",
        "detail": null,
        "lat": "22.44763",
        "lng": "114.02471",
        "workHrs": {
            "monday": "05:54 - 00:30",
            "tuesday": "05:54 - 00:30",
            "wednesday": "05:54 - 00:30",
            "thursday": "05:54 - 00:30",
            "friday": "05:54 - 00:30",
            "saturday": "05:54 - 00:30",
            "sunday": "05:54 - 00:30"
        },
        "atm24": false,
        "service": "現金提款\n輪椅通道 (自動櫃員機)"
    },
    {
        "atm_type": "hsbc",
        "bank_type": "匯豐銀行",
        "name": "匯豐銀行 朗屏邨理財易中心",
        "area": "新界",
        "district": "元朗",
        "address": "元朗朗屏商場鏡屏樓平台3B號舖",
        "detail": null,
        "lat": "22.45035",
        "lng": "114.02316",
        "workHrs": null,
        "atm24": true,
        "service": "現金提款"
    },
    {
        "atm_type": "hsbc",
        "bank_type": "匯豐銀行",
        "name": "匯豐銀行 錦綉花園理財易中心",
        "area": "新界",
        "district": "元朗",
        "address": "新界元朗錦綉花園市中心D座地下1C號舖",
        "detail": null,
        "lat": "22.47766",
        "lng": "114.04512",
        "workHrs": null,
        "atm24": true,
        "service": "現金提款\n輪椅通道 (自動櫃員機)\n現金存款\n更新存摺簿交易資料\n支票存款"
    },
    {
        "atm_type": "hsbc",
        "bank_type": "匯豐銀行",
        "name": "匯豐銀行 水邊圍邨(Circle-K)自動櫃員機",
        "area": "新界",
        "district": "元朗",
        "address": "元朗水邊圍邨康水樓103 & 105號舖Circle-K便利店",
        "detail": null,
        "lat": "22.44671",
        "lng": "114.02102",
        "workHrs": null,
        "atm24": true,
        "service": "現金提款"
    },
    {
        "atm_type": "hsbc",
        "bank_type": "匯豐銀行",
        "name": "匯豐銀行 天慈邨自動櫃員機",
        "area": "新界",
        "district": "元朗",
        "address": "新界天水圍天喜街9號天慈邨天慈商場地下",
        "detail": null,
        "lat": "22.453077",
        "lng": "114.006929",
        "workHrs": null,
        "atm24": true,
        "service": "現金提款\n輪椅通道 (自動櫃員機)"
    },
    {
        "atm_type": "hsbc",
        "bank_type": "匯豐銀行",
        "name": "匯豐銀行 港鐵天水圍站理財易中心",
        "area": "新界",
        "district": "元朗",
        "address": "收費區 - 港鐵天水圍站收費區17號舖 及 收費區外 - 港鐵天水圍站收費區外櫃員機,自動售賣機A01號位",
        "detail": null,
        "lat": "22.44853",
        "lng": "114.00515",
        "workHrs": {
            "monday": "05:51 - 00:36",
            "tuesday": "05:51 - 00:36",
            "wednesday": "05:51 - 00:36",
            "thursday": "05:51 - 00:36",
            "friday": "05:51 - 00:36",
            "saturday": "05:51 - 00:36",
            "sunday": "05:51 - 00:36"
        },
        "atm24": false,
        "service": "現金提款\n輪椅通道 (自動櫃員機)\n現金存款\n更新存摺簿交易資料"
    },
    {
        "atm_type": "hsbc",
        "bank_type": "匯豐銀行",
        "name": "匯豐銀行 天耀邨理財易中心",
        "area": "新界",
        "district": "元朗",
        "address": "新界元朗天水圍天湖路二號天耀商埸地下L019A號舖",
        "detail": null,
        "lat": "22.450786",
        "lng": "114.003308",
        "workHrs": null,
        "atm24": true,
        "service": "現金提款\n輪椅通道 (自動櫃員機)"
    },
    {
        "atm_type": "hsbc",
        "bank_type": "匯豐銀行",
        "name": "匯豐銀行 天水圍理財易中心",
        "area": "新界",
        "district": "元朗",
        "address": "新界天水圍嘉湖銀座第二期",
        "detail": null,
        "lat": "22.457068",
        "lng": "114.003268",
        "workHrs": null,
        "atm24": true,
        "service": "輪椅通道 (自動櫃員機)\n現金存款\n更新存摺簿交易資料\n支票存款\n現金提款 (港幣及人民幣)"
    },
    {
        "atm_type": "hsbc",
        "bank_type": "匯豐銀行",
        "name": "匯豐銀行 嘉湖新北江商場(7-Eleven) 自動櫃員機",
        "area": "新界",
        "district": "元朗",
        "address": "新界元朗天水圍天湖路1號嘉湖新北江商場地下A10-A13號舖7-Eleven便利店",
        "detail": null,
        "lat": "22.45219",
        "lng": "114.00044",
        "workHrs": null,
        "atm24": true,
        "service": "現金提款\n輪椅通道 (自動櫃員機)"
    },
    {
        "atm_type": "hsbc",
        "bank_type": "匯豐銀行",
        "name": "匯豐銀行 天晴邨 (7-Eleven) 自動櫃員機",
        "area": "新界",
        "district": "元朗",
        "address": "新界天水圍天晴邨天晴商場地下 7 號舖位",
        "detail": null,
        "lat": "22.463309",
        "lng": "114.002917",
        "workHrs": null,
        "atm24": true,
        "service": "現金提款\n輪椅通道 (自動櫃員機)"
    },
    {
        "atm_type": "hsbc",
        "bank_type": "匯豐銀行",
        "name": "匯豐銀行 頌富理財易中心",
        "area": "新界",
        "district": "元朗",
        "address": "新界天水圍頌富商場20號舖側空地",
        "detail": null,
        "lat": "22.46161",
        "lng": "113.99778",
        "workHrs": null,
        "atm24": true,
        "service": "現金提款\n輪椅通道 (自動櫃員機)"
    },
    {
        "atm_type": "hsbc",
        "bank_type": "匯豐銀行",
        "name": "匯豐銀行 天恩邨自動櫃員機",
        "area": "新界",
        "district": "元朗",
        "address": "新界天水圍天恩邨天恩商場自動扶手電梯下空地",
        "detail": null,
        "lat": "22.462494",
        "lng": "113.996301",
        "workHrs": {
            "monday": "06:00 - 23:59",
            "tuesday": "06:00 - 23:59",
            "wednesday": "06:00 - 23:59",
            "thursday": "06:00 - 23:59",
            "friday": "06:00 - 23:59",
            "saturday": "06:00 - 23:59",
            "sunday": "06:00 - 23:59"
        },
        "atm24": false,
        "service": "現金提款\n輪椅通道 (自動櫃員機)"
    },
    {
        "atm_type": "hsbc",
        "bank_type": "匯豐銀行",
        "name": "匯豐銀行 天澤邨自動櫃員機",
        "area": "新界",
        "district": "元朗",
        "address": "新界天水圍天瑞路77號天澤商場地下",
        "detail": null,
        "lat": "22.468366",
        "lng": "113.998786",
        "workHrs": null,
        "atm24": true,
        "service": "現金提款\n輪椅通道 (自動櫃員機)"
    },
    {
        "atm_type": "hsbc",
        "bank_type": "匯豐銀行",
        "name": "匯豐銀行 粉嶺分行",
        "area": "新界",
        "district": "北區",
        "address": "新界粉嶺聯和墟和豐街14-16號",
        "detail": null,
        "lat": "22.498591",
        "lng": "114.142279",
        "workHrs": {
            "monday": "09:00 - 16:30",
            "tuesday": "09:00 - 16:30",
            "wednesday": "09:00 - 16:30",
            "thursday": "09:00 - 16:30",
            "friday": "09:00 - 17:00",
            "saturday": "09:00 - 13:00",
            "sunday": "-"
        },
        "atm24": false,
        "service": "現金提款\n外幣兌換服務\n匯豐卓越理財服務櫃檯\n現金存款\n網上理財服務\n更新存摺簿交易資料\n匯豐運籌理財服務櫃檯\n支票存款"
    },
    {
        "atm_type": "hsbc",
        "bank_type": "匯豐銀行",
        "name": "匯豐銀行 祥華邨自動櫃員機",
        "area": "新界",
        "district": "北區",
        "address": "新界粉嶺祥華邨祥華商場地下2 號自助櫃員機",
        "detail": null,
        "lat": "22.4932",
        "lng": "114.14084",
        "workHrs": null,
        "atm24": true,
        "service": "現金提款\n輪椅通道 (自動櫃員機)"
    },
    {
        "atm_type": "hsbc",
        "bank_type": "匯豐銀行",
        "name": "匯豐銀行 天平邨自動櫃員機",
        "area": "新界",
        "district": "北區",
        "address": "新界上水天平邨天平商場地下自動櫃員機2號",
        "detail": null,
        "lat": "22.50325",
        "lng": "114.13359",
        "workHrs": null,
        "atm24": true,
        "service": "現金提款\n輪椅通道 (自動櫃員機)"
    },
    {
        "atm_type": "hsbc",
        "bank_type": "匯豐銀行",
        "name": "匯豐銀行 粉嶺名都理財易中心",
        "area": "新界",
        "district": "北區",
        "address": "新界粉嶺名都商場2樓18號舖",
        "detail": null,
        "lat": "22.49226",
        "lng": "114.13959",
        "workHrs": {
            "monday": "05:10 - 01:00",
            "tuesday": "05:10 - 01:00",
            "wednesday": "05:10 - 01:00",
            "thursday": "05:10 - 01:00",
            "friday": "05:10 - 01:00",
            "saturday": "05:10 - 01:00",
            "sunday": "05:10 - 01:00"
        },
        "atm24": false,
        "service": "輪椅通道 (自動櫃員機)\n現金存款\n更新存摺簿交易資料\n支票存款\n現金提款 (港幣及人民幣)"
    },
    {
        "atm_type": "hsbc",
        "bank_type": "匯豐銀行",
        "name": "匯豐銀行 港鐵粉嶺站理財易中心",
        "area": "新界",
        "district": "北區",
        "address": "港鐵粉嶺站(收費區外)",
        "detail": null,
        "lat": "22.492614",
        "lng": "114.138722",
        "workHrs": null,
        "atm24": true,
        "service": "輪椅通道 (自動櫃員機)\n現金提款 (港幣及人民幣)"
    },
    {
        "atm_type": "hsbc",
        "bank_type": "匯豐銀行",
        "name": "匯豐銀行 嘉福邨自動櫃員機",
        "area": "新界",
        "district": "北區",
        "address": "新界粉嶺嘉福邨嘉福商場地下自動櫃員機位1號",
        "detail": null,
        "lat": "22.49375",
        "lng": "114.13545",
        "workHrs": null,
        "atm24": true,
        "service": "現金提款\n輪椅通道 (自動櫃員機)"
    },
    {
        "atm_type": "hsbc",
        "bank_type": "匯豐銀行",
        "name": "匯豐銀行 富亨邨自動櫃員機",
        "area": "新界",
        "district": "大埔",
        "address": "新界大埔富亨邨富亨商場地下2號自助櫃員機",
        "detail": null,
        "lat": "22.45827",
        "lng": "114.17153",
        "workHrs": null,
        "atm24": true,
        "service": "現金提款\n輪椅通道 (自動櫃員機)"
    },
    {
        "atm_type": "hsbc",
        "bank_type": "匯豐銀行",
        "name": "匯豐銀行 大元邨自動櫃員機",
        "area": "新界",
        "district": "大埔",
        "address": "新界大埔大元邨大元市場409A號舖",
        "detail": null,
        "lat": "22.454029",
        "lng": "114.168028",
        "workHrs": null,
        "atm24": true,
        "service": "現金提款\n輪椅通道 (自動櫃員機)"
    },
    {
        "atm_type": "hsbc",
        "bank_type": "匯豐銀行",
        "name": "匯豐銀行 翠屏花園理財易中心",
        "area": "新界",
        "district": "大埔",
        "address": "新界大埔翠屏花園商場26號",
        "detail": null,
        "lat": "22.453263",
        "lng": "114.168591",
        "workHrs": null,
        "atm24": true,
        "service": "現金提款\n輪椅通道 (自動櫃員機)\n現金存款\n更新存摺簿交易資料\n支票存款"
    },
    {
        "atm_type": "hsbc",
        "bank_type": "匯豐銀行",
        "name": "匯豐銀行 富善邨理財易中心",
        "area": "新界",
        "district": "大埔",
        "address": "新界大埔富善邨商場地下22號舖",
        "detail": null,
        "lat": "22.45403",
        "lng": "114.17462",
        "workHrs": null,
        "atm24": true,
        "service": "現金提款\n輪椅通道 (自動櫃員機)"
    },
    {
        "atm_type": "hsbc",
        "bank_type": "匯豐銀行",
        "name": "匯豐銀行 一田百貨 (大埔) 自動櫃員機",
        "area": "新界",
        "district": "大埔",
        "address": "新界大埔安邦路8及10號大埔超級城B區一田百貨地下自動櫃員機位",
        "detail": null,
        "lat": "22.451718",
        "lng": "114.169879",
        "workHrs": {
            "monday": "06:00 - 00:00",
            "tuesday": "06:00 - 00:00",
            "wednesday": "06:00 - 00:00",
            "thursday": "06:00 - 00:00",
            "friday": "06:00 - 00:00",
            "saturday": "06:00 - 00:00",
            "sunday": "06:00 - 00:00"
        },
        "atm24": false,
        "service": "現金提款\n輪椅通道 (自動櫃員機)"
    },
    {
        "atm_type": "hsbc",
        "bank_type": "匯豐銀行",
        "name": "匯豐銀行 新界北警察總部自動櫃員機",
        "area": "新界",
        "district": "大埔",
        "address": "新界大埔安埔里地下6號",
        "detail": null,
        "lat": "22.45166",
        "lng": "114.17333",
        "workHrs": null,
        "atm24": true,
        "service": "現金提款"
    },
    {
        "atm_type": "hsbc",
        "bank_type": "匯豐銀行",
        "name": "匯豐銀行 太和邨理財易中心",
        "area": "新界",
        "district": "大埔",
        "address": "新界大埔太和邨太和廣場K2號舖",
        "detail": null,
        "lat": "22.45125",
        "lng": "114.16168",
        "workHrs": null,
        "atm24": true,
        "service": "現金提款"
    },
    {
        "atm_type": "hsbc",
        "bank_type": "匯豐銀行",
        "name": "匯豐銀行 港鐵太和站自動櫃員機",
        "area": "新界",
        "district": "大埔",
        "address": "港鐵太和站收費區內 TWO ATM 4自動櫃員機機位",
        "detail": null,
        "lat": "22.45102",
        "lng": "114.1613",
        "workHrs": {
            "monday": "05:30 - 01:00",
            "tuesday": "05:30 - 01:00",
            "wednesday": "05:30 - 01:00",
            "thursday": "05:30 - 01:00",
            "friday": "05:30 - 01:00",
            "saturday": "05:30 - 01:00",
            "sunday": "05:30 - 01:00"
        },
        "atm24": false,
        "service": "輪椅通道 (自動櫃員機)\n現金提款 (港幣及人民幣)"
    },
    {
        "atm_type": "hsbc",
        "bank_type": "匯豐銀行",
        "name": "匯豐銀行 康樂園理財易中心",
        "area": "新界",
        "district": "大埔",
        "address": "新界大埔康樂園市中心徑3號地下1號舖",
        "detail": null,
        "lat": "22.4624",
        "lng": "114.15228",
        "workHrs": null,
        "atm24": true,
        "service": "現金提款"
    },
    {
        "atm_type": "hsbc",
        "bank_type": "匯豐銀行",
        "name": "匯豐銀行 太和廣場理財易中心",
        "area": "新界",
        "district": "大埔",
        "address": "新界大埔太和邨太和廣場S221A號舖",
        "detail": null,
        "lat": "22.45051",
        "lng": "114.16089",
        "workHrs": null,
        "atm24": true,
        "service": "現金提款\n輪椅通道 (自動櫃員機)"
    },
    {
        "atm_type": "hsbc",
        "bank_type": "匯豐銀行",
        "name": "匯豐銀行 大埔理財易中心",
        "area": "新界",
        "district": "大埔",
        "address": "新界大埔廣福道54-62號",
        "detail": null,
        "lat": "22.448767",
        "lng": "114.166652",
        "workHrs": null,
        "atm24": true,
        "service": "輪椅通道 (自動櫃員機)\n現金存款\n更新存摺簿交易資料\n支票存款\n現金提款 (港幣及人民幣)"
    },
    {
        "atm_type": "hsbc",
        "bank_type": "匯豐銀行",
        "name": "匯豐銀行 廣福邨理財易中心",
        "area": "新界",
        "district": "大埔",
        "address": "新界大埔廣福邨商場K1號舖",
        "detail": null,
        "lat": "22.44864",
        "lng": "114.17417",
        "workHrs": null,
        "atm24": true,
        "service": "現金提款\n輪椅通道 (自動櫃員機)"
    },
    {
        "atm_type": "hsbc",
        "bank_type": "匯豐銀行",
        "name": "匯豐銀行 港鐵大埔墟站理財易中心",
        "area": "新界",
        "district": "大埔",
        "address": "新界大埔港鐵大埔墟站收費區外6號舖",
        "detail": null,
        "lat": "22.44443",
        "lng": "114.17044",
        "workHrs": {
            "monday": "05:47 - 00:51",
            "tuesday": "05:47 - 00:51",
            "wednesday": "05:47 - 00:51",
            "thursday": "05:47 - 00:51",
            "friday": "05:47 - 00:51",
            "saturday": "05:47 - 00:51",
            "sunday": "05:47 - 00:51"
        },
        "atm24": false,
        "service": "輪椅通道 (自動櫃員機)\n現金提款 (港幣及人民幣)"
    },
    {
        "atm_type": "hsbc",
        "bank_type": "匯豐銀行",
        "name": "匯豐銀行 運頭塘邨理財易中心",
        "area": "新界",
        "district": "大埔",
        "address": "新界大埔運頭塘邨商場K1號舖",
        "detail": null,
        "lat": "22.44209",
        "lng": "114.16744",
        "workHrs": null,
        "atm24": true,
        "service": "現金提款\n輪椅通道 (自動櫃員機)"
    },
    {
        "atm_type": "hsbc",
        "bank_type": "匯豐銀行",
        "name": "匯豐銀行 華明邨自動櫃員機",
        "area": "新界",
        "district": "北區",
        "address": "新界粉嶺華明邨華明商場地下自動櫃員機1號",
        "detail": null,
        "lat": "22.48414",
        "lng": "114.14103",
        "workHrs": null,
        "atm24": true,
        "service": "現金提款\n輪椅通道 (自動櫃員機)"
    },
    {
        "atm_type": "hsbc",
        "bank_type": "匯豐銀行",
        "name": "匯豐銀行 雍盛苑理財易中心",
        "area": "新界",
        "district": "北區",
        "address": "新界粉嶺雍盛苑雍盛商場地下1號櫃員機",
        "detail": null,
        "lat": "22.48259",
        "lng": "114.13862",
        "workHrs": {
            "monday": "06:00 - 00:00",
            "tuesday": "06:00 - 00:00",
            "wednesday": "06:00 - 00:00",
            "thursday": "06:00 - 00:00",
            "friday": "06:00 - 00:00",
            "saturday": "06:00 - 00:00",
            "sunday": "06:00 - 00:00"
        },
        "atm24": false,
        "service": "現金提款\n輪椅通道 (自動櫃員機)"
    },
    {
        "atm_type": "hsbc",
        "bank_type": "匯豐銀行",
        "name": "匯豐銀行 錦英苑理財易中心",
        "area": "新界",
        "district": "沙田",
        "address": "新界沙田馬鞍山錦英苑商場13號舖",
        "detail": null,
        "lat": "22.42223",
        "lng": "114.23578",
        "workHrs": null,
        "atm24": true,
        "service": "現金提款\n輪椅通道 (自動櫃員機)"
    },
    {
        "atm_type": "hsbc",
        "bank_type": "匯豐銀行",
        "name": "匯豐銀行 耀安邨理財易中心",
        "area": "新界",
        "district": "沙田",
        "address": "新界馬鞍山耀安邨商場106號舖側",
        "detail": null,
        "lat": "22.4205",
        "lng": "114.23047",
        "workHrs": null,
        "atm24": true,
        "service": "現金提款\n輪椅通道 (自動櫃員機)"
    },
    {
        "atm_type": "hsbc",
        "bank_type": "匯豐銀行",
        "name": "匯豐銀行 馬鞍山理財易中心",
        "area": "新界",
        "district": "沙田",
        "address": "新界馬鞍山西沙路628號新港城廣場2樓5-8號舖",
        "detail": null,
        "lat": "22.424666",
        "lng": "114.229897",
        "workHrs": null,
        "atm24": true,
        "service": "輪椅通道 (自動櫃員機)\n現金提款 (港幣及人民幣)"
    },
    {
        "atm_type": "hsbc",
        "bank_type": "匯豐銀行",
        "name": "匯豐銀行 恆安邨理財易中心",
        "area": "新界",
        "district": "沙田",
        "address": "新界馬鞍山恆安邨商場2樓K1號舖",
        "detail": null,
        "lat": "22.41669",
        "lng": "114.22828",
        "workHrs": null,
        "atm24": true,
        "service": "現金提款\n輪椅通道 (自動櫃員機)"
    },
    {
        "atm_type": "hsbc",
        "bank_type": "匯豐銀行",
        "name": "匯豐銀行 利安邨自動櫃員機",
        "area": "新界",
        "district": "沙田",
        "address": "新界馬鞍山利安邨利安商場地庫2樓自動櫃員機位(毗鄰LG203號舖)",
        "detail": null,
        "lat": "22.42657",
        "lng": "114.24104",
        "workHrs": null,
        "atm24": true,
        "service": "現金提款\n輪椅通道 (自動櫃員機)"
    },
    {
        "atm_type": "hsbc",
        "bank_type": "匯豐銀行",
        "name": "匯豐銀行 馬鞍山理財易中心",
        "area": "新界",
        "district": "沙田",
        "address": "新界馬鞍山新港城廣場2樓51號舖",
        "detail": null,
        "lat": "22.42506",
        "lng": "114.22973",
        "workHrs": null,
        "atm24": true,
        "service": "現金存款\n更新存摺簿交易資料\n支票存款"
    },
    {
        "atm_type": "hsbc",
        "bank_type": "匯豐銀行",
        "name": "匯豐銀行 頌安邨自動櫃員機",
        "area": "新界",
        "district": "沙田",
        "address": "新界馬鞍山頌安邨頌安商場地下2號自助櫃員機",
        "detail": null,
        "lat": "22.42152",
        "lng": "114.22645",
        "workHrs": null,
        "atm24": true,
        "service": "現金提款\n輪椅通道 (自動櫃員機)"
    },
    {
        "atm_type": "hsbc",
        "bank_type": "匯豐銀行",
        "name": "匯豐銀行 欣安邨自動櫃員機",
        "area": "新界",
        "district": "沙田",
        "address": "新界沙田馬鞍山欣安邨欣喜樓地下空位自動櫃員機",
        "detail": null,
        "lat": "22.414609",
        "lng": "114.225487",
        "workHrs": null,
        "atm24": true,
        "service": "現金提款\n輪椅通道 (自動櫃員機)"
    },
    {
        "atm_type": "hsbc",
        "bank_type": "匯豐銀行",
        "name": "匯豐銀行 港鐵烏溪沙站自動櫃員機",
        "area": "新界",
        "district": "沙田",
        "address": "新界沙田港鐵烏溪沙站收費區內 WKS ATM 2 自動櫃員機機位",
        "detail": null,
        "lat": "22.429258",
        "lng": "114.243844",
        "workHrs": {
            "monday": "05:30 - 01:31",
            "tuesday": "05:30 - 01:31",
            "wednesday": "05:30 - 01:31",
            "thursday": "05:30 - 01:31",
            "friday": "05:30 - 01:31",
            "saturday": "05:30 - 01:31",
            "sunday": "05:30 - 01:31"
        },
        "atm24": false,
        "service": "現金提款\n輪椅通道 (自動櫃員機)"
    },
    {
        "atm_type": "hsbc",
        "bank_type": "匯豐銀行",
        "name": "匯豐銀行 港鐵大水坑站自動櫃員機",
        "area": "新界",
        "district": "沙田",
        "address": "新界沙田港鐵大水坑站收費區內3號舖",
        "detail": null,
        "lat": "22.40827",
        "lng": "114.22268",
        "workHrs": {
            "monday": "06:00 - 01:00",
            "tuesday": "06:00 - 01:00",
            "wednesday": "06:00 - 01:00",
            "thursday": "06:00 - 01:00",
            "friday": "06:00 - 01:00",
            "saturday": "06:00 - 01:00",
            "sunday": "06:00 - 01:00"
        },
        "atm24": false,
        "service": "現金提款\n輪椅通道 (自動櫃員機)"
    },
    {
        "atm_type": "hsbc",
        "bank_type": "匯豐銀行",
        "name": "匯豐銀行 香港科學園理財易中心",
        "area": "新界",
        "district": "沙田",
        "address": "新界沙田香港科學園科技大道西1 號地 下G03 商舖",
        "detail": null,
        "lat": "22.42558",
        "lng": "114.21278",
        "workHrs": null,
        "atm24": true,
        "service": "現金提款"
    },
    {
        "atm_type": "hsbc",
        "bank_type": "匯豐銀行",
        "name": "匯豐銀行 港鐵大學站理財易中心",
        "area": "新界",
        "district": "沙田",
        "address": "新界沙田港鐵大學站(收費區內)",
        "detail": null,
        "lat": "22.4133",
        "lng": "114.21024",
        "workHrs": null,
        "atm24": true,
        "service": "輪椅通道 (自動櫃員機)\n現金提款 (港幣及人民幣)"
    },
    {
        "atm_type": "hsbc",
        "bank_type": "匯豐銀行",
        "name": "匯豐銀行 踏石角理財易中心",
        "area": "新界",
        "district": "屯門",
        "address": "新界屯門踏石角中華電力公司 - 青山發電廠",
        "detail": null,
        "lat": "22.37576",
        "lng": "113.92116",
        "workHrs": null,
        "atm24": true,
        "service": "現金提款"
    },
    {
        "atm_type": "hsbc",
        "bank_type": "匯豐銀行",
        "name": "匯豐銀行 蝴蝶邨自動櫃員機",
        "area": "新界",
        "district": "屯門",
        "address": "新界屯門蝴蝶邨蝴蝶廣場地下自動櫃員機1號(毗鄰Shop L112號舖)",
        "detail": null,
        "lat": "22.37522",
        "lng": "113.96266",
        "workHrs": {
            "monday": "05:00 - 00:00",
            "tuesday": "05:00 - 00:00",
            "wednesday": "05:00 - 00:00",
            "thursday": "05:00 - 00:00",
            "friday": "05:00 - 00:00",
            "saturday": "05:00 - 00:00",
            "sunday": "05:00 - 00:00"
        },
        "atm24": false,
        "service": "現金提款\n輪椅通道 (自動櫃員機)"
    },
    {
        "atm_type": "hsbc",
        "bank_type": "匯豐銀行",
        "name": "匯豐銀行 海趣坊理財易中心",
        "area": "新界",
        "district": "屯門",
        "address": "新界屯門湖翠路168-236 號海趣坊87-92號舖",
        "detail": null,
        "lat": "22.37275",
        "lng": "113.966281",
        "workHrs": null,
        "atm24": true,
        "service": "現金提款\n輪椅通道 (自動櫃員機)\n現金存款\n更新存摺簿交易資料\n支票存款"
    },
    {
        "atm_type": "hsbc",
        "bank_type": "匯豐銀行",
        "name": "匯豐銀行 新屯門中心自動櫃員機",
        "area": "新界",
        "district": "屯門",
        "address": "新界屯門新屯門中心商場第3層",
        "detail": null,
        "lat": "22.381141",
        "lng": "113.965052",
        "workHrs": null,
        "atm24": true,
        "service": "輪椅通道 (自動櫃員機)\n現金提款 (港幣及人民幣)"
    },
    {
        "atm_type": "hsbc",
        "bank_type": "匯豐銀行",
        "name": "匯豐銀行 龍門居 (7-Eleven) 自動櫃員機",
        "area": "新界",
        "district": "屯門",
        "address": "新界屯門龍門路43號龍門居39號舖",
        "detail": null,
        "lat": "22.385732",
        "lng": "113.966573",
        "workHrs": null,
        "atm24": true,
        "service": "現金提款"
    },
    {
        "atm_type": "hsbc",
        "bank_type": "匯豐銀行",
        "name": "匯豐銀行 翠寧花園(Circle K)自動櫃員機",
        "area": "新界",
        "district": "屯門",
        "address": "屯門翠寧花園地下12-13號舖",
        "detail": null,
        "lat": "22.384193",
        "lng": "113.973774",
        "workHrs": null,
        "atm24": true,
        "service": "現金提款"
    },
    {
        "atm_type": "hsbc",
        "bank_type": "匯豐銀行",
        "name": "匯豐銀行 恆福商場理財易中心",
        "area": "新界",
        "district": "屯門",
        "address": "新界屯門恆福商場地下112號舖",
        "detail": null,
        "lat": "22.38285",
        "lng": "113.97798",
        "workHrs": null,
        "atm24": true,
        "service": "現金提款"
    },
    {
        "atm_type": "hsbc",
        "bank_type": "匯豐銀行",
        "name": "匯豐銀行 安定邨理財易中心",
        "area": "新界",
        "district": "屯門",
        "address": "屯門安定邨安定商場地下C111及C112號舖",
        "detail": null,
        "lat": "22.386895",
        "lng": "113.975902",
        "workHrs": {
            "monday": "06:00 - 00:00",
            "tuesday": "06:00 - 00:00",
            "wednesday": "06:00 - 00:00",
            "thursday": "06:00 - 00:00",
            "friday": "06:00 - 00:00",
            "saturday": "06:00 - 00:00",
            "sunday": "06:00 - 00:00"
        },
        "atm24": false,
        "service": "現金提款\n輪椅通道 (自動櫃員機)\n現金存款\n更新存摺簿交易資料"
    },
    {
        "atm_type": "hsbc",
        "bank_type": "匯豐銀行",
        "name": "匯豐銀行 置樂花園理財易中心",
        "area": "新界",
        "district": "屯門",
        "address": "新界屯門置樂花園商業中心地下35號",
        "detail": null,
        "lat": "22.38756",
        "lng": "113.97986",
        "workHrs": null,
        "atm24": true,
        "service": "現金提款\n輪椅通道 (自動櫃員機)"
    },
    {
        "atm_type": "hsbc",
        "bank_type": "匯豐銀行",
        "name": "匯豐銀行 屯門時代廣場理財易中心",
        "area": "新界",
        "district": "屯門",
        "address": "新界屯門屯合街2號屯門時代廣場商場南冀地下21號舖",
        "detail": null,
        "lat": "22.392415",
        "lng": "113.975767",
        "workHrs": {
            "monday": "05:30 - 23:59",
            "tuesday": "05:30 - 23:59",
            "wednesday": "05:30 - 23:59",
            "thursday": "05:30 - 23:59",
            "friday": "05:30 - 23:59",
            "saturday": "05:30 - 23:59",
            "sunday": "05:30 - 23:59"
        },
        "atm24": false,
        "service": "輪椅通道 (自動櫃員機)\n現金存款\n更新存摺簿交易資料\n支票存款\n現金提款 (港幣及人民幣)"
    },
    {
        "atm_type": "hsbc",
        "bank_type": "匯豐銀行",
        "name": "匯豐銀行 山景邨理財易中心",
        "area": "新界",
        "district": "屯門",
        "address": "新界屯門山景邨商場2樓215號舖",
        "detail": null,
        "lat": "22.39661",
        "lng": "113.966",
        "workHrs": null,
        "atm24": true,
        "service": "現金提款"
    },
    {
        "atm_type": "hsbc",
        "bank_type": "匯豐銀行",
        "name": "匯豐銀行 屯門理財易中心",
        "area": "新界",
        "district": "屯門",
        "address": "新界屯門屯盛街1號屯門市廣場一期高層地下UG001-002號舖",
        "detail": null,
        "lat": "22.393519",
        "lng": "113.976473",
        "workHrs": {
            "monday": "07:00 - 00:00",
            "tuesday": "07:00 - 00:00",
            "wednesday": "07:00 - 00:00",
            "thursday": "07:00 - 00:00",
            "friday": "07:00 - 00:00",
            "saturday": "07:00 - 00:00",
            "sunday": "07:00 - 00:00"
        },
        "atm24": false,
        "service": "現金提款\n輪椅通道 (自動櫃員機)"
    },
    {
        "atm_type": "hsbc",
        "bank_type": "匯豐銀行",
        "name": "匯豐銀行 屯門市廣場理財易中心",
        "area": "新界",
        "district": "屯門",
        "address": "新界屯門屯門市廣場第二期地下1號舖",
        "detail": null,
        "lat": "22.393893",
        "lng": "113.976449",
        "workHrs": null,
        "atm24": true,
        "service": "輪椅通道 (自動櫃員機)\n現金存款\n更新存摺簿交易資料\n支票存款\n現金提款 (港幣及人民幣)"
    },
    {
        "atm_type": "hsbc",
        "bank_type": "匯豐銀行",
        "name": "匯豐銀行 港鐵屯門站理財易中心",
        "area": "新界",
        "district": "屯門",
        "address": "新界屯門西鐵屯門站收費區外38號舖",
        "detail": null,
        "lat": "22.39582",
        "lng": "113.97322",
        "workHrs": {
            "monday": "05:45 - 00:30",
            "tuesday": "05:45 - 00:30",
            "wednesday": "05:45 - 00:30",
            "thursday": "05:45 - 00:30",
            "friday": "05:45 - 00:30",
            "saturday": "05:45 - 00:30",
            "sunday": "05:45 - 00:30"
        },
        "atm24": false,
        "service": "現金提款\n輪椅通道 (自動櫃員機)\n更新存摺簿交易資料"
    },
    {
        "atm_type": "hsbc",
        "bank_type": "匯豐銀行",
        "name": "匯豐銀行 香港黃金海岸理財易中心",
        "area": "新界",
        "district": "屯門",
        "address": "新界屯門黃金海岸購物商場1A號舖",
        "detail": null,
        "lat": "22.37188",
        "lng": "113.99276",
        "workHrs": null,
        "atm24": true,
        "service": "現金提款\n輪椅通道 (自動櫃員機)"
    },
    {
        "atm_type": "hsbc",
        "bank_type": "匯豐銀行",
        "name": "匯豐銀行 香港國際機場 - 離港登機層西翼(禁區)自動櫃員機",
        "area": "離島",
        "district": "離島",
        "address": "赤鱲角香港國際機場1號客運大樓離港登機層西翼禁區6W570B號",
        "detail": null,
        "lat": "22.312324",
        "lng": "113.927139",
        "workHrs": null,
        "atm24": true,
        "service": "現金提款\n輪椅通道 (自動櫃員機)"
    },
    {
        "atm_type": "hsbc",
        "bank_type": "匯豐銀行",
        "name": "匯豐銀行 亞洲國際博覽館理財易中心",
        "area": "離島",
        "district": "離島",
        "address": "赤鱲角香港國際機場亞洲國際博覽館1號場館對外地下",
        "detail": null,
        "lat": "22.32222",
        "lng": "113.94483",
        "workHrs": null,
        "atm24": true,
        "service": "輪椅通道 (自動櫃員機)\n現金提款 (港幣及人民幣)"
    },
    {
        "atm_type": "hsbc",
        "bank_type": "匯豐銀行",
        "name": "匯豐銀行 香港天際萬豪酒店自動櫃員機",
        "area": "離島",
        "district": "離島",
        "address": "新界香港國際機場航天城東路一號香港天際萬豪酒店走廊商業中心外面空地",
        "detail": null,
        "lat": "22.319207",
        "lng": "113.943785",
        "workHrs": null,
        "atm24": true,
        "service": "現金提款\n輪椅通道 (自動櫃員機)"
    },
    {
        "atm_type": "hsbc",
        "bank_type": "匯豐銀行",
        "name": "匯豐銀行 翔天廊理財易中心",
        "area": "離島",
        "district": "離島",
        "address": "大嶼山赤鱲角香港國際機場二號客運大樓6P016-018",
        "detail": null,
        "lat": "22.315808",
        "lng": "113.938683",
        "workHrs": null,
        "atm24": true,
        "service": "現金提款\n輪椅通道 (自動櫃員機)\n現金存款\n更新存摺簿交易資料\n支票存款"
    },
    {
        "atm_type": "hsbc",
        "bank_type": "匯豐銀行",
        "name": "匯豐銀行 香港國際機場 - 地面運輸中心自動櫃員機",
        "area": "離島",
        "district": "離島",
        "address": "赤鱲角香港國際機場1號客運大樓地面運輸中心5G086A號",
        "detail": null,
        "lat": "22.315227",
        "lng": "113.936731",
        "workHrs": null,
        "atm24": true,
        "service": "現金提款"
    },
    {
        "atm_type": "hsbc",
        "bank_type": "匯豐銀行",
        "name": "匯豐銀行 香港國際機場 - 離港登機大堂理財易中心",
        "area": "離島",
        "district": "離島",
        "address": "赤鱲角香港國際機場1號客運大樓離港登機層7T076號舖",
        "detail": null,
        "lat": "22.3155",
        "lng": "113.93533",
        "workHrs": null,
        "atm24": true,
        "service": "現金提款\n輪椅通道 (自動櫃員機)"
    },
    {
        "atm_type": "hsbc",
        "bank_type": "匯豐銀行",
        "name": "匯豐銀行 香港國際機場理財易中心(5T002)",
        "area": "離島",
        "district": "離島",
        "address": "大嶼山赤鱲角香港國際機場1號客運大樓抵港層5T002",
        "detail": null,
        "lat": "22.316413",
        "lng": "113.934338",
        "workHrs": null,
        "atm24": true,
        "service": "現金提款\n輪椅通道 (自動櫃員機)\n現金存款"
    },
    {
        "atm_type": "hsbc",
        "bank_type": "匯豐銀行",
        "name": "匯豐銀行 香港國際機場理財易中心",
        "area": "離島",
        "district": "離島",
        "address": "大嶼山赤鱲角香港國際機場1號客運大樓抵港層5T054-056",
        "detail": null,
        "lat": "22.3145",
        "lng": "113.9348",
        "workHrs": null,
        "atm24": true,
        "service": "現金提款\n輪椅通道 (自動櫃員機)"
    },
    {
        "atm_type": "hsbc",
        "bank_type": "匯豐銀行",
        "name": "匯豐銀行 香港國際機場 - 離港登機層東翼(禁區) 理財易中心",
        "area": "離島",
        "district": "離島",
        "address": "赤鱲角香港國際機場1號客運大樓離港登機層東大堂禁區6E201號",
        "detail": null,
        "lat": "22.31514",
        "lng": "113.93403",
        "workHrs": null,
        "atm24": true,
        "service": "現金提款\n輪椅通道 (自動櫃員機)"
    },
    {
        "atm_type": "hsbc",
        "bank_type": "匯豐銀行",
        "name": "匯豐銀行 深井理財易中心",
        "area": "新界",
        "district": "荃灣",
        "address": "新界深井海韻花園地下G6號舖",
        "detail": null,
        "lat": "22.36823",
        "lng": "114.06172",
        "workHrs": null,
        "atm24": true,
        "service": "現金提款\n輪椅通道 (自動櫃員機)"
    },
    {
        "atm_type": "hsbc",
        "bank_type": "匯豐銀行",
        "name": "匯豐銀行 荃灣中心理財易中心",
        "area": "新界",
        "district": "荃灣",
        "address": "新界荃灣荃灣中心購物商場地庫上層71號舖",
        "detail": null,
        "lat": "22.37906",
        "lng": "114.10762",
        "workHrs": null,
        "atm24": true,
        "service": "現金提款"
    },
    {
        "atm_type": "hsbc",
        "bank_type": "匯豐銀行",
        "name": "匯豐銀行 愉景新城理財易中心",
        "area": "新界",
        "district": "荃灣",
        "address": "新界荃灣愉景新城購物商場第三層3022及3023號舖",
        "detail": null,
        "lat": "22.376345",
        "lng": "114.110719",
        "workHrs": {
            "monday": "06:30 - 23:00",
            "tuesday": "06:30 - 23:00",
            "wednesday": "06:30 - 23:00",
            "thursday": "06:30 - 23:00",
            "friday": "06:30 - 23:00",
            "saturday": "06:30 - 23:00",
            "sunday": "06:30 - 23:00"
        },
        "atm24": false,
        "service": "現金提款\n輪椅通道 (自動櫃員機)\n現金存款\n更新存摺簿交易資料\n支票存款"
    },
    {
        "atm_type": "hsbc",
        "bank_type": "匯豐銀行",
        "name": "匯豐銀行 象山邨自動櫃員機",
        "area": "新界",
        "district": "荃灣",
        "address": "新界荃灣象山邨象山邨商場3樓自動櫃員機位(313-317號舖對面)",
        "detail": null,
        "lat": "22.37856",
        "lng": "114.13059",
        "workHrs": null,
        "atm24": true,
        "service": "現金提款\n輪椅通道 (自動櫃員機)"
    },
    {
        "atm_type": "hsbc",
        "bank_type": "匯豐銀行",
        "name": "匯豐銀行 長宏邨自動櫃員機",
        "area": "新界",
        "district": "葵青",
        "address": "新界長宏邨長宏商場地下自動櫃員機",
        "detail": null,
        "lat": "22.356568",
        "lng": "114.095619",
        "workHrs": null,
        "atm24": true,
        "service": "現金提款\n輪椅通道 (自動櫃員機)"
    },
    {
        "atm_type": "hsbc",
        "bank_type": "匯豐銀行",
        "name": "匯豐銀行 長亨邨自動櫃員機",
        "area": "新界",
        "district": "葵青",
        "address": "新界青衣長亨邨長亨商埸地下自動櫃員機二號",
        "detail": null,
        "lat": "22.354911",
        "lng": "114.097607",
        "workHrs": null,
        "atm24": true,
        "service": "現金提款\n輪椅通道 (自動櫃員機)"
    },
    {
        "atm_type": "hsbc",
        "bank_type": "匯豐銀行",
        "name": "匯豐銀行 港鐵荃灣西站理財易中心",
        "area": "新界",
        "district": "荃灣",
        "address": "港鐵荃灣西站17號舖",
        "detail": null,
        "lat": "22.36757",
        "lng": "114.11095",
        "workHrs": {
            "monday": "06:05 - 23:30",
            "tuesday": "06:05 - 23:30",
            "wednesday": "06:05 - 23:30",
            "thursday": "06:05 - 23:30",
            "friday": "06:05 - 23:30",
            "saturday": "06:05 - 23:30",
            "sunday": "06:05 - 23:30"
        },
        "atm24": false,
        "service": "現金提款\n輪椅通道 (自動櫃員機)"
    },
    {
        "atm_type": "hsbc",
        "bank_type": "匯豐銀行",
        "name": "匯豐銀行 荃新天地理財易中心",
        "area": "新界",
        "district": "荃灣",
        "address": "新界荃灣楊屋道1號荃新天地地下21-22號舖",
        "detail": null,
        "lat": "22.369186",
        "lng": "114.113923",
        "workHrs": null,
        "atm24": true,
        "service": "現金提款\n輪椅通道 (自動櫃員機)\n現金存款\n更新存摺簿交易資料\n支票存款"
    },
    {
        "atm_type": "hsbc",
        "bank_type": "匯豐銀行",
        "name": "匯豐銀行 中染新城理財易中心",
        "area": "新界",
        "district": "荃灣",
        "address": "新界荃灣青山道388號中染新城1樓1號櫃員機",
        "detail": null,
        "lat": "22.37539",
        "lng": "114.11306",
        "workHrs": null,
        "atm24": true,
        "service": "現金提款\n輪椅通道 (自動櫃員機)\n支票存款"
    },
    {
        "atm_type": "hsbc",
        "bank_type": "匯豐銀行",
        "name": "匯豐銀行 大廈街 (7-Eleven) 自動櫃員機",
        "area": "新界",
        "district": "葵青",
        "address": "荃灣大窩口大廈街15-17 號 仁 雅大廈地下 A 舖 7-Eleven便利店",
        "detail": null,
        "lat": "22.36875",
        "lng": "114.12299",
        "workHrs": null,
        "atm24": true,
        "service": "現金提款"
    },
    {
        "atm_type": "hsbc",
        "bank_type": "匯豐銀行",
        "name": "匯豐銀行 葵涌邨自動櫃員機",
        "area": "新界",
        "district": "葵青",
        "address": "新界葵涌邨葵涌商場212舖位側空地",
        "detail": null,
        "lat": "22.36742",
        "lng": "114.1282",
        "workHrs": null,
        "atm24": true,
        "service": "現金提款\n輪椅通道 (自動櫃員機)"
    },
    {
        "atm_type": "hsbc",
        "bank_type": "匯豐銀行",
        "name": "匯豐銀行 石圍角邨自動櫃員機",
        "area": "新界",
        "district": "荃灣",
        "address": "新界荃灣石圍角邨石圍角商場3樓326號舖側",
        "detail": null,
        "lat": "22.3752",
        "lng": "114.12415",
        "workHrs": null,
        "atm24": true,
        "service": "現金提款\n輪椅通道 (自動櫃員機)"
    },
    {
        "atm_type": "hsbc",
        "bank_type": "匯豐銀行",
        "name": "匯豐銀行 葵盛東邨自動櫃員機",
        "area": "新界",
        "district": "葵青",
        "address": "新界葵盛東邨葵盛東商埸自動櫃員機2號",
        "detail": null,
        "lat": "22.364523",
        "lng": "114.127157",
        "workHrs": {
            "monday": "09:00 - 23:00",
            "tuesday": "09:00 - 23:00",
            "wednesday": "09:00 - 23:00",
            "thursday": "09:00 - 23:00",
            "friday": "09:00 - 23:00",
            "saturday": "09:00 - 23:00",
            "sunday": "09:00 - 23:00"
        },
        "atm24": false,
        "service": "現金提款\n輪椅通道 (自動櫃員機)"
    },
    {
        "atm_type": "hsbc",
        "bank_type": "匯豐銀行",
        "name": "匯豐銀行 荃灣千色匯II理財易中心",
        "area": "新界",
        "district": "荃灣",
        "address": "新界荃灣荃灣街市街67-95號荃灣千色匯2期地下G3&G4舖",
        "detail": null,
        "lat": "22.371225",
        "lng": "114.118118",
        "workHrs": null,
        "atm24": true,
        "service": "輪椅通道 (自動櫃員機)\n現金存款\n更新存摺簿交易資料\n支票存款\n現金提款 (港幣及人民幣)"
    },
    {
        "atm_type": "hsbc",
        "bank_type": "匯豐銀行",
        "name": "匯豐銀行 荃灣荃勝大廈 (Circle K) 自動櫃員機",
        "area": "新界",
        "district": "荃灣",
        "address": "荃灣青山道185-187號荃勝大廈地下A2舖",
        "detail": null,
        "lat": "22.372319",
        "lng": "114.117911",
        "workHrs": null,
        "atm24": true,
        "service": "現金提款"
    },
    {
        "atm_type": "hsbc",
        "bank_type": "匯豐銀行",
        "name": "匯豐銀行 荃灣理財易中心",
        "area": "新界",
        "district": "荃灣",
        "address": "新界荃灣青山公路210號富華中心一樓4A,4B(A)-4B(C),5及6舖",
        "detail": null,
        "lat": "22.37305",
        "lng": "114.118292",
        "workHrs": null,
        "atm24": true,
        "service": "現金提款\n輪椅通道 (自動櫃員機)\n現金存款\n更新存摺簿交易資料\n支票存款"
    },
    {
        "atm_type": "hsbc",
        "bank_type": "匯豐銀行",
        "name": "匯豐銀行 眾安街(7-Eleven) 自動櫃員機",
        "area": "新界",
        "district": "荃灣",
        "address": "新界荃灣眾安街69號地下7-Eleven便利店",
        "detail": null,
        "lat": "22.36941",
        "lng": "114.11639",
        "workHrs": null,
        "atm24": true,
        "service": "現金提款"
    },
    {
        "atm_type": "hsbc",
        "bank_type": "匯豐銀行",
        "name": "匯豐銀行 青衣城理財易中心",
        "area": "新界",
        "district": "葵青",
        "address": "新界青衣青衣城地下G07A號舖",
        "detail": null,
        "lat": "22.3592",
        "lng": "114.10845",
        "workHrs": null,
        "atm24": true,
        "service": "輪椅通道 (自動櫃員機)\n現金存款\n更新存摺簿交易資料\n支票存款\n現金提款 (港幣及人民幣)"
    },
    {
        "atm_type": "hsbc",
        "bank_type": "匯豐銀行",
        "name": "匯豐銀行 長發邨理財易中心",
        "area": "新界",
        "district": "葵青",
        "address": "新界青衣長發商場318A號舖",
        "detail": null,
        "lat": "22.36257",
        "lng": "114.10335",
        "workHrs": null,
        "atm24": true,
        "service": "現金提款\n輪椅通道 (自動櫃員機)\n現金存款\n更新存摺簿交易資料"
    },
    {
        "atm_type": "hsbc",
        "bank_type": "匯豐銀行",
        "name": "匯豐銀行 海濱廣場 (7-Eleven) 自動櫃員機",
        "area": "新界",
        "district": "荃灣",
        "address": "新界荃灣怡樂街 1-5 號海濱花園 E 座地下 101 號舖位",
        "detail": null,
        "lat": "22.361983",
        "lng": "114.114497",
        "workHrs": null,
        "atm24": true,
        "service": "現金提款"
    },
    {
        "atm_type": "hsbc",
        "bank_type": "匯豐銀行",
        "name": "匯豐銀行 葵芳分行",
        "area": "新界",
        "district": "葵青區",
        "address": "新界葵芳新都會廣場地下153-160號舖",
        "detail": null,
        "lat": "22.357961",
        "lng": "114.126503",
        "workHrs": {
            "monday": "09:00 - 16:30",
            "tuesday": "09:00 - 16:30",
            "wednesday": "09:00 - 16:30",
            "thursday": "09:00 - 16:30",
            "friday": "09:00 - 17:00",
            "saturday": "09:00 - 13:00",
            "sunday": "-"
        },
        "atm24": true,
        "service": "現金提款\n外幣兌換服務\n輪椅通道 (自動櫃員機)\n網上理財服務\n輪椅通道 (分行)\n匯豐運籌理財服務櫃檯"
    },
    {
        "atm_type": "hsbc",
        "bank_type": "匯豐銀行",
        "name": "匯豐銀行 葵芳理財易中心",
        "area": "新界",
        "district": "葵青",
        "address": "新界葵芳新都會廣場地下151-152號舖",
        "detail": null,
        "lat": "22.357971",
        "lng": "114.126533",
        "workHrs": {
            "monday": "08:00 - 23:00",
            "tuesday": "08:00 - 23:00",
            "wednesday": "08:00 - 23:00",
            "thursday": "08:00 - 23:00",
            "friday": "08:00 - 23:00",
            "saturday": "08:00 - 23:00",
            "sunday": "08:00 - 23:00"
        },
        "atm24": false,
        "service": "輪椅通道 (自動櫃員機)\n現金存款\n更新存摺簿交易資料\n支票存款\n現金提款 (港幣及人民幣)"
    },
    {
        "atm_type": "hsbc",
        "bank_type": "匯豐銀行",
        "name": "匯豐銀行 葵盛西理財易中心",
        "area": "新界",
        "district": "葵青",
        "address": "新界葵涌葵盛西邨第7座地下1B號舖",
        "detail": null,
        "lat": "22.361166",
        "lng": "114.122691",
        "workHrs": null,
        "atm24": true,
        "service": "現金提款"
    },
    {
        "atm_type": "hsbc",
        "bank_type": "匯豐銀行",
        "name": "匯豐銀行 葵芳邨自動櫃員機",
        "area": "新界",
        "district": "葵青",
        "address": "新界葵芳邨葵芳商埸自動櫃員機1號",
        "detail": null,
        "lat": "22.357786",
        "lng": "114.129839",
        "workHrs": {
            "monday": "07:00 - 23:00",
            "tuesday": "07:00 - 23:00",
            "wednesday": "07:00 - 23:00",
            "thursday": "07:00 - 23:00",
            "friday": "07:00 - 23:00",
            "saturday": "07:00 - 23:00",
            "sunday": "07:00 - 23:00"
        },
        "atm24": false,
        "service": "現金提款\n輪椅通道 (自動櫃員機)"
    },
    {
        "atm_type": "hsbc",
        "bank_type": "匯豐銀行",
        "name": "匯豐銀行 嘉里貨運中心自動櫃員機",
        "area": "新界",
        "district": "葵青",
        "address": "新界葵涌永基路55號嘉里貨運中心電梯大堂 P1 樓",
        "detail": null,
        "lat": "22.363737",
        "lng": "114.121071",
        "workHrs": null,
        "atm24": true,
        "service": "現金提款"
    },
    {
        "atm_type": "hsbc",
        "bank_type": "匯豐銀行",
        "name": "匯豐銀行 麗瑤邨理財易中心",
        "area": "新界",
        "district": "葵青",
        "address": "新界葵涌麗瑤邨麗瑤商場中心地下",
        "detail": null,
        "lat": "22.35407",
        "lng": "114.13105",
        "workHrs": null,
        "atm24": true,
        "service": "現金提款"
    },
    {
        "atm_type": "hsbc",
        "bank_type": "匯豐銀行",
        "name": "匯豐銀行 葵興理財易中心",
        "area": "新界",
        "district": "葵青",
        "address": "新界葵涌興芳路166-174號 新葵興廣場3樓2號舖",
        "detail": null,
        "lat": "22.363218",
        "lng": "114.131421",
        "workHrs": {
            "monday": "06:00 - 00:00",
            "tuesday": "06:00 - 00:00",
            "wednesday": "06:00 - 00:00",
            "thursday": "06:00 - 00:00",
            "friday": "06:00 - 00:00",
            "saturday": "06:00 - 00:00",
            "sunday": "06:00 - 00:00"
        },
        "atm24": false,
        "service": "現金提款\n輪椅通道 (自動櫃員機)\n現金存款\n更新存摺簿交易資料\n支票存款"
    },
    {
        "atm_type": "hsbc",
        "bank_type": "匯豐銀行",
        "name": "匯豐銀行 長青邨自動櫃員機",
        "area": "新界",
        "district": "葵青",
        "address": "新界青衣長青邨長青商場2樓平台青葵樓正門入口外空地",
        "detail": null,
        "lat": "22.34517",
        "lng": "114.10929",
        "workHrs": null,
        "atm24": true,
        "service": "現金提款\n輪椅通道 (自動櫃員機)"
    },
    {
        "atm_type": "hsbc",
        "bank_type": "匯豐銀行",
        "name": "匯豐銀行 長康邨自動櫃員機",
        "area": "新界",
        "district": "葵青",
        "address": "新界青衣長康邨長康邨2期商場1樓1號自動櫃員機",
        "detail": null,
        "lat": "22.34989",
        "lng": "114.09849",
        "workHrs": null,
        "atm24": true,
        "service": "現金提款\n輪椅通道 (自動櫃員機)"
    },
    {
        "atm_type": "hsbc",
        "bank_type": "匯豐銀行",
        "name": "匯豐銀行 翠怡花園理財易中心",
        "area": "新界",
        "district": "葵青",
        "address": "新界青衣翠怡花園商場地下1號舖",
        "detail": null,
        "lat": "22.35135",
        "lng": "114.10845",
        "workHrs": null,
        "atm24": true,
        "service": "現金提款"
    },
    {
        "atm_type": "hsbc",
        "bank_type": "匯豐銀行",
        "name": "匯豐銀行 現代貨櫃碼頭理財易中心",
        "area": "新界",
        "district": "葵青",
        "address": "新界葵涌現代貨櫃1號碼頭地下",
        "detail": null,
        "lat": "22.34594",
        "lng": "114.124",
        "workHrs": null,
        "atm24": true,
        "service": "現金提款"
    },
    {
        "atm_type": "hsbc",
        "bank_type": "匯豐銀行",
        "name": "匯豐銀行 荔景邨自動櫃員機",
        "area": "新界",
        "district": "葵青",
        "address": "新界葵涌荔景山道賢麗苑商場地下7-Eleven便利店對面空地",
        "detail": null,
        "lat": "22.34844",
        "lng": "114.12656",
        "workHrs": null,
        "atm24": true,
        "service": "現金提款\n輪椅通道 (自動櫃員機)"
    },
    {
        "atm_type": "hsbc",
        "bank_type": "匯豐銀行",
        "name": "匯豐銀行 逸東邨自動櫃員機",
        "area": "離島",
        "district": "離島",
        "address": "大嶼山東涌逸東商場1樓110號舖側5號自動櫃員機",
        "detail": null,
        "lat": "22.28171",
        "lng": "113.93477",
        "workHrs": {
            "monday": "07:00 - 23:00",
            "tuesday": "07:00 - 23:00",
            "wednesday": "07:00 - 23:00",
            "thursday": "07:00 - 23:00",
            "friday": "07:00 - 23:00",
            "saturday": "07:00 - 23:00",
            "sunday": "07:00 - 23:00"
        },
        "atm24": false,
        "service": "現金提款\n輪椅通道 (自動櫃員機)"
    },
    {
        "atm_type": "hsbc",
        "bank_type": "匯豐銀行",
        "name": "匯豐銀行 東薈城名店倉理財易中心",
        "area": "離島",
        "district": "離島",
        "address": "大嶼山東涌達東路東薈城名店倉地下G25號舖",
        "detail": null,
        "lat": "22.28955",
        "lng": "113.94042",
        "workHrs": null,
        "atm24": true,
        "service": "現金提款\n輪椅通道 (自動櫃員機)\n現金存款\n更新存摺簿交易資料\n支票存款"
    },
    {
        "atm_type": "hsbc",
        "bank_type": "匯豐銀行",
        "name": "匯豐銀行 富東邨自動櫃員機",
        "area": "離島",
        "district": "離島",
        "address": "新界富東邨富東商埸自動櫃員機1號",
        "detail": null,
        "lat": "22.288828",
        "lng": "113.942422",
        "workHrs": {
            "monday": "09:00 - 23:00",
            "tuesday": "09:00 - 23:00",
            "wednesday": "09:00 - 23:00",
            "thursday": "09:00 - 23:00",
            "friday": "09:00 - 23:00",
            "saturday": "09:00 - 23:00",
            "sunday": "09:00 - 23:00"
        },
        "atm24": false,
        "service": "現金提款\n輪椅通道 (自動櫃員機)"
    },
    {
        "atm_type": "hsbc",
        "bank_type": "匯豐銀行",
        "name": "匯豐銀行 國泰航空貨運站自動櫃員機",
        "area": "離島",
        "district": "離島",
        "address": "赤鱲角香港國際機場駿運路國泰航空貨運站三樓",
        "detail": null,
        "lat": "22.296686",
        "lng": "113.926447",
        "workHrs": null,
        "atm24": true,
        "service": "現金提款\n輪椅通道 (自動櫃員機)"
    },
    {
        "atm_type": "hsbc",
        "bank_type": "匯豐銀行",
        "name": "匯豐銀行 超級貨站理財易中心",
        "area": "離島",
        "district": "離島",
        "address": "赤鱲角超級1號貨站辦公室大樓南座地下",
        "detail": null,
        "lat": "22.2986",
        "lng": "113.9297",
        "workHrs": null,
        "atm24": true,
        "service": "現金提款\n輪椅通道 (自動櫃員機)"
    },
    {
        "atm_type": "hsbc",
        "bank_type": "匯豐銀行",
        "name": "匯豐銀行 國泰城分行",
        "area": null,
        "district": "離島區",
        "address": "大嶼山赤鱲角觀景道8號國泰城商場1樓B-E舖",
        "detail": null,
        "lat": "22.298083",
        "lng": "113.934183",
        "workHrs": {
            "monday": "09:00 - 16:30",
            "tuesday": "09:00 - 16:30",
            "wednesday": "09:00 - 16:30",
            "thursday": "09:00 - 16:30",
            "friday": "09:00 - 17:00",
            "saturday": "09:00 - 13:00",
            "sunday": "-"
        },
        "atm24": true,
        "service": "現金提款\n外幣兌換服務\n匯豐卓越理財服務櫃檯\n現金存款\n網上理財服務\n輪椅通道 (分行)\n更新存摺簿交易資料"
    },
    {
        "atm_type": "hsbc",
        "bank_type": "匯豐銀行",
        "name": "匯豐銀行 港龍大廈理財易中心",
        "area": "離島",
        "district": "離島",
        "address": "赤鱲角香港國際機場東輝路11-12號港龍大廈地下",
        "detail": null,
        "lat": "22.30342",
        "lng": "113.93927",
        "workHrs": null,
        "atm24": true,
        "service": "現金提款\n輪椅通道 (自動櫃員機)"
    },
    {
        "atm_type": "hsbc",
        "bank_type": "匯豐銀行",
        "name": "匯豐銀行 香港飛機工程理財易中心",
        "area": "離島",
        "district": "離島",
        "address": "赤鱲角香港國際機場南環路80號正門側",
        "detail": null,
        "lat": "22.30359",
        "lng": "113.89933",
        "workHrs": null,
        "atm24": true,
        "service": "現金提款"
    },
    {
        "atm_type": "hsbc",
        "bank_type": "匯豐銀行",
        "name": "匯豐銀行 大澳理財易中心",
        "area": "離島",
        "district": "離島",
        "address": "大嶼山大澳街市街二十五號地下D座",
        "detail": null,
        "lat": "22.254382",
        "lng": "113.862026",
        "workHrs": null,
        "atm24": true,
        "service": "現金提款\n輪椅通道 (自動櫃員機)"
    },
    {
        "atm_type": "hsbc",
        "bank_type": "匯豐銀行",
        "name": "匯豐銀行 坪洲分行",
        "area": null,
        "district": "離島區",
        "address": "坪洲永興街1-3號",
        "detail": null,
        "lat": "22.284411",
        "lng": "114.038596",
        "workHrs": {
            "monday": "08:30 - 16:15",
            "tuesday": "-",
            "wednesday": "08:30 - 16:15",
            "thursday": "-",
            "friday": "08:30 - 16:15",
            "saturday": "-",
            "sunday": "-"
        },
        "atm24": true,
        "service": "現金提款\n外幣兌換服務\n匯豐卓越理財服務櫃檯\n網上理財服務\n更新存摺簿交易資料"
    },
    {
        "atm_type": "hsbc",
        "bank_type": "匯豐銀行",
        "name": "匯豐銀行 愉景灣分行",
        "area": null,
        "district": "離島區",
        "address": "大嶼山愉景灣愉景廣場地下G15A, 12D 及 G13 號舖",
        "detail": null,
        "lat": "22.296396",
        "lng": "114.016905",
        "workHrs": {
            "monday": "09:00 - 16:30",
            "tuesday": "09:00 - 16:30",
            "wednesday": "09:00 - 16:30",
            "thursday": "09:00 - 16:30",
            "friday": "09:00 - 17:00",
            "saturday": "09:00 - 13:00",
            "sunday": "-"
        },
        "atm24": true,
        "service": "現金提款\n外幣兌換服務\n匯豐卓越理財服務櫃檯\n網上理財服務\n輪椅通道 (分行)\n更新存摺簿交易資料"
    },
    {
        "atm_type": "hsbc",
        "bank_type": "匯豐銀行",
        "name": "匯豐銀行 榕樹灣分行",
        "area": null,
        "district": "離島區",
        "address": "南丫島榕樹灣大街19號",
        "detail": null,
        "lat": "22.226625",
        "lng": "114.111429",
        "workHrs": {
            "monday": "-",
            "tuesday": "08:30 - 16:15",
            "wednesday": "-",
            "thursday": "08:30 - 16:15",
            "friday": "08:30 - 16:15",
            "saturday": "-",
            "sunday": "-"
        },
        "atm24": true,
        "service": "現金提款\n外幣兌換服務\n匯豐卓越理財服務櫃檯\n網上理財服務\n更新存摺簿交易資料"
    },
    {
        "atm_type": "hsbc",
        "bank_type": "匯豐銀行",
        "name": "匯豐銀行 梅窩分行",
        "area": null,
        "district": "離島區",
        "address": "大嶼山銀礦灣4號",
        "detail": null,
        "lat": "22.264907",
        "lng": "114.000674",
        "workHrs": {
            "monday": "08:30 - 16:15",
            "tuesday": "08:30 - 16:15",
            "wednesday": "-",
            "thursday": "08:30 - 16:15",
            "friday": "08:30 - 16:15",
            "saturday": "-",
            "sunday": "-"
        },
        "atm24": true,
        "service": "現金提款\n外幣兌換服務\n匯豐卓越理財服務櫃檯\n網上理財服務\n保險箱服務\n更新存摺簿交易資料"
    },
    {
        "atm_type": "hsbc",
        "bank_type": "匯豐銀行",
        "name": "匯豐銀行 堅尼地城理財易中心",
        "area": "香港島",
        "district": "中西區",
        "address": "香港西環卑路乍街144-148號金豪閣地下2C-2D號舖",
        "detail": null,
        "lat": "22.28225",
        "lng": "114.12676",
        "workHrs": null,
        "atm24": true,
        "service": "現金提款\n輪椅通道 (自動櫃員機)\n現金存款\n更新存摺簿交易資料\n支票存款"
    },
    {
        "atm_type": "hsbc",
        "bank_type": "匯豐銀行",
        "name": "匯豐銀行 數碼港理財易中心",
        "area": "香港島",
        "district": "南區",
        "address": "香港薄扶林數碼港道100 號商場3樓5號舖",
        "detail": null,
        "lat": "22.26069",
        "lng": "114.12976",
        "workHrs": {
            "monday": "09:00 - 21:00",
            "tuesday": "09:00 - 21:00",
            "wednesday": "09:00 - 21:00",
            "thursday": "09:00 - 21:00",
            "friday": "09:00 - 21:00",
            "saturday": "09:00 - 21:00",
            "sunday": "09:00 - 21:00"
        },
        "atm24": false,
        "service": "現金提款\n輪椅通道 (自動櫃員機)"
    },
    {
        "atm_type": "hsbc",
        "bank_type": "匯豐銀行",
        "name": "匯豐銀行 瑪麗醫院理財易中心",
        "area": "香港島",
        "district": "南區",
        "address": "香港薄扶林道瑪麗醫院A翼大堂入口",
        "detail": null,
        "lat": "22.27054",
        "lng": "114.131",
        "workHrs": null,
        "atm24": true,
        "service": "現金提款"
    },
    {
        "atm_type": "hsbc",
        "bank_type": "匯豐銀行",
        "name": "匯豐銀行 西寶城理財易中心",
        "area": "香港島",
        "district": "中西區",
        "address": "香港西環卑路乍街8號西寶城地下低層1-3 號舖",
        "detail": null,
        "lat": "22.285014",
        "lng": "114.133132",
        "workHrs": null,
        "atm24": true,
        "service": "現金提款\n輪椅通道 (自動櫃員機)\n現金存款\n更新存摺簿交易資料\n支票存款"
    },
    {
        "atm_type": "hsbc",
        "bank_type": "匯豐銀行",
        "name": "匯豐銀行 長洲分行",
        "area": null,
        "district": "離島區",
        "address": "長洲南海傍路1116號地段",
        "detail": null,
        "lat": "22.206163",
        "lng": "114.02846",
        "workHrs": {
            "monday": "09:00 - 16:15",
            "tuesday": "09:00 - 16:15",
            "wednesday": "09:00 - 16:15",
            "thursday": "09:00 - 16:15",
            "friday": "09:00 - 16:15",
            "saturday": "09:00 - 13:00",
            "sunday": "-"
        },
        "atm24": true,
        "service": "現金提款\n外幣兌換服務\n匯豐卓越理財服務櫃檯\n網上理財服務\n保險箱服務\n更新存摺簿交易資料"
    },
    {
        "atm_type": "hsbc",
        "bank_type": "匯豐銀行",
        "name": "匯豐銀行 長洲理財易中心",
        "area": "離島",
        "district": "離島",
        "address": "長洲北社海傍路19A地下",
        "detail": null,
        "lat": "22.21072",
        "lng": "114.02806",
        "workHrs": null,
        "atm24": true,
        "service": "現金提款"
    },
    {
        "atm_type": "hsbc",
        "bank_type": "匯豐銀行",
        "name": "匯豐銀行 梨木樹邨理財易中心",
        "area": "新界",
        "district": "葵青",
        "address": "新界葵涌梨木樹邨梨木樹商場25號舖",
        "detail": null,
        "lat": "22.37783",
        "lng": "114.13675",
        "workHrs": {
            "monday": "06:00 - 00:00",
            "tuesday": "06:00 - 00:00",
            "wednesday": "06:00 - 00:00",
            "thursday": "06:00 - 00:00",
            "friday": "06:00 - 00:00",
            "saturday": "06:00 - 00:00",
            "sunday": "06:00 - 00:00"
        },
        "atm24": false,
        "service": "現金提款\n輪椅通道 (自動櫃員機)"
    },
    {
        "atm_type": "hsbc",
        "bank_type": "匯豐銀行",
        "name": "匯豐銀行 港鐵沙田站理財易中心",
        "area": "新界",
        "district": "沙田",
        "address": "新界沙田港鐵沙田站(收費區外)SHT32號舖",
        "detail": null,
        "lat": "22.38282",
        "lng": "114.18765",
        "workHrs": null,
        "atm24": true,
        "service": "輪椅通道 (自動櫃員機)\n現金提款 (港幣及人民幣)"
    },
    {
        "atm_type": "hsbc",
        "bank_type": "匯豐銀行",
        "name": "匯豐銀行 沙田廣場理財易中心",
        "area": "新界",
        "district": "沙田",
        "address": "新界沙田沙田正街21-27號沙田廣場L1樓49舖",
        "detail": null,
        "lat": "22.383651",
        "lng": "114.189599",
        "workHrs": null,
        "atm24": true,
        "service": "輪椅通道 (自動櫃員機)\n現金存款\n更新存摺簿交易資料\n支票存款\n現金提款 (港幣及人民幣)"
    },
    {
        "atm_type": "hsbc",
        "bank_type": "匯豐銀行",
        "name": "匯豐銀行 瀝源邨自動櫃員機",
        "area": "新界",
        "district": "沙田",
        "address": "新界沙田瀝源邨瀝源商場1樓15號舖側",
        "detail": null,
        "lat": "22.38459",
        "lng": "114.19186",
        "workHrs": {
            "monday": "07:00 - 23:00",
            "tuesday": "07:00 - 23:00",
            "wednesday": "07:00 - 23:00",
            "thursday": "07:00 - 23:00",
            "friday": "07:00 - 23:00",
            "saturday": "07:00 - 23:00",
            "sunday": "07:00 - 23:00"
        },
        "atm24": false,
        "service": "現金提款\n輪椅通道 (自動櫃員機)"
    },
    {
        "atm_type": "hsbc",
        "bank_type": "匯豐銀行",
        "name": "匯豐銀行 好運中心理財易中心",
        "area": "新界",
        "district": "沙田",
        "address": "新界沙田好運中心商場第三層109號A2",
        "detail": null,
        "lat": "22.38249",
        "lng": "114.19117",
        "workHrs": null,
        "atm24": true,
        "service": "輪椅通道 (自動櫃員機)\n現金存款\n更新存摺簿交易資料\n支票存款\n現金提款 (港幣及人民幣)"
    },
    {
        "atm_type": "hsbc",
        "bank_type": "匯豐銀行",
        "name": "匯豐銀行 禾輋邨理財易中心",
        "area": "新界",
        "district": "沙田",
        "address": "新界沙田禾輋邨禾輋商場2樓212 號舖",
        "detail": null,
        "lat": "22.38789",
        "lng": "114.19519",
        "workHrs": null,
        "atm24": true,
        "service": "現金提款\n輪椅通道 (自動櫃員機)\n更新存摺簿交易資料"
    },
    {
        "atm_type": "hsbc",
        "bank_type": "匯豐銀行",
        "name": "匯豐銀行 穗禾苑理財易中心",
        "area": "新界",
        "district": "沙田",
        "address": "新界沙田穗禾苑1樓F6A號舖",
        "detail": null,
        "lat": "22.39186",
        "lng": "114.19436",
        "workHrs": null,
        "atm24": true,
        "service": "現金提款\n輪椅通道 (自動櫃員機)"
    },
    {
        "atm_type": "hsbc",
        "bank_type": "匯豐銀行",
        "name": "匯豐銀行 河畔花園 (7-Eleven) 自動櫃員機",
        "area": "新界",
        "district": "沙田",
        "address": "沙田大涌橋路20-30號河畔花園地下36舖7-Eleven",
        "detail": null,
        "lat": "22.38127",
        "lng": "114.19591",
        "workHrs": null,
        "atm24": true,
        "service": "現金提款"
    },
    {
        "atm_type": "hsbc",
        "bank_type": "匯豐銀行",
        "name": "匯豐銀行 美林邨自動櫃員機",
        "area": "新界",
        "district": "沙田",
        "address": "沙田大圍美林商場1樓ATM2",
        "detail": null,
        "lat": "22.37802",
        "lng": "114.17591",
        "workHrs": null,
        "atm24": true,
        "service": "現金提款\n輪椅通道 (自動櫃員機)"
    },
    {
        "atm_type": "hsbc",
        "bank_type": "匯豐銀行",
        "name": "匯豐銀行 沙角邨理財易中心",
        "area": "新界",
        "district": "沙田",
        "address": "新界沙田沙角邨商場3樓39號舖",
        "detail": null,
        "lat": "22.37776",
        "lng": "114.19409",
        "workHrs": null,
        "atm24": true,
        "service": "現金提款"
    },
    {
        "atm_type": "hsbc",
        "bank_type": "匯豐銀行",
        "name": "匯豐銀行 港鐵沙田圍站自動櫃員機",
        "area": "新界",
        "district": "沙田",
        "address": "新界沙田港鐵沙田圍站收費區內5B號舖",
        "detail": null,
        "lat": "22.37675",
        "lng": "114.19458",
        "workHrs": {
            "monday": "05:30 - 01:08",
            "tuesday": "05:30 - 01:08",
            "wednesday": "05:30 - 01:08",
            "thursday": "05:30 - 01:08",
            "friday": "05:30 - 01:08",
            "saturday": "05:30 - 01:08",
            "sunday": "05:30 - 01:08"
        },
        "atm24": false,
        "service": "現金提款\n輪椅通道 (自動櫃員機)"
    },
    {
        "atm_type": "hsbc",
        "bank_type": "匯豐銀行",
        "name": "匯豐銀行 博康邨(7-Eleven)自動櫃員機",
        "area": "新界",
        "district": "沙田",
        "address": "新界沙田博康邨博康商場9及10號舖7-Eleven",
        "detail": null,
        "lat": "22.37548",
        "lng": "114.19321",
        "workHrs": null,
        "atm24": true,
        "service": "現金提款"
    },
    {
        "atm_type": "hsbc",
        "bank_type": "匯豐銀行",
        "name": "匯豐銀行 港鐵火炭站自動櫃員機",
        "area": "新界",
        "district": "沙田",
        "address": "新界沙田港鐵火炭站(收費區內)",
        "detail": null,
        "lat": "22.39541",
        "lng": "114.1983",
        "workHrs": null,
        "atm24": true,
        "service": "輪椅通道 (自動櫃員機)\n現金提款 (港幣及人民幣)"
    },
    {
        "atm_type": "hsbc",
        "bank_type": "匯豐銀行",
        "name": "匯豐銀行 美田邨自動櫃員機",
        "area": "新界",
        "district": "沙田",
        "address": "新界沙田美田邨美田商場2樓203號舖對面空地",
        "detail": null,
        "lat": "22.37629",
        "lng": "114.1709",
        "workHrs": null,
        "atm24": true,
        "service": "現金提款\n輪椅通道 (自動櫃員機)"
    },
    {
        "atm_type": "hsbc",
        "bank_type": "匯豐銀行",
        "name": "匯豐銀行 威爾斯親王醫院理財易中心",
        "area": "新界",
        "district": "沙田",
        "address": "新界沙田銀城街威爾斯親王醫院2樓",
        "detail": null,
        "lat": "22.37985",
        "lng": "114.20155",
        "workHrs": null,
        "atm24": true,
        "service": "現金提款\n輪椅通道 (自動櫃員機)"
    },
    {
        "atm_type": "hsbc",
        "bank_type": "匯豐銀行",
        "name": "匯豐銀行 石籬邨理財易中心",
        "area": "新界",
        "district": "葵青",
        "address": "新界葵涌石籬邨石籬商場2期3樓310號舖",
        "detail": null,
        "lat": "22.36571",
        "lng": "114.13922",
        "workHrs": {
            "monday": "06:30 - 00:00",
            "tuesday": "06:30 - 00:00",
            "wednesday": "06:30 - 00:00",
            "thursday": "06:30 - 00:00",
            "friday": "06:30 - 00:00",
            "saturday": "06:30 - 00:00",
            "sunday": "06:30 - 00:00"
        },
        "atm24": false,
        "service": "現金提款\n輪椅通道 (自動櫃員機)\n現金存款\n更新存摺簿交易資料"
    },
    {
        "atm_type": "hsbc",
        "bank_type": "匯豐銀行",
        "name": "匯豐銀行 安蔭邨自動櫃員機",
        "area": "新界",
        "district": "葵青",
        "address": "新界葵涌安蔭邨安蔭商場1樓102號舖側",
        "detail": null,
        "lat": "22.37106",
        "lng": "114.14165",
        "workHrs": null,
        "atm24": true,
        "service": "現金提款\n輪椅通道 (自動櫃員機)"
    },
    {
        "atm_type": "hsbc",
        "bank_type": "匯豐銀行",
        "name": "匯豐銀行 和宜合道理財易中心",
        "area": "新界",
        "district": "葵青",
        "address": "新界葵涌和宜合道5-27號寶星中心1樓11號舖",
        "detail": null,
        "lat": "22.365784",
        "lng": "114.136463",
        "workHrs": null,
        "atm24": true,
        "service": "現金提款"
    },
    {
        "atm_type": "hsbc",
        "bank_type": "匯豐銀行",
        "name": "匯豐銀行 石蔭理財易中心",
        "area": "新界",
        "district": "葵青",
        "address": "新界葵涌石蔭邨石蔭商場 LG 1樓 LG122 號舖",
        "detail": null,
        "lat": "22.37155",
        "lng": "114.13863",
        "workHrs": {
            "monday": "06:30 - 00:00",
            "tuesday": "06:30 - 00:00",
            "wednesday": "06:30 - 00:00",
            "thursday": "06:30 - 00:00",
            "friday": "06:30 - 00:00",
            "saturday": "06:30 - 00:00",
            "sunday": "06:30 - 00:00"
        },
        "atm24": false,
        "service": "現金提款\n輪椅通道 (自動櫃員機)\n現金存款\n更新存摺簿交易資料\n支票存款"
    },
    {
        "atm_type": "hsbc",
        "bank_type": "匯豐銀行",
        "name": "匯豐銀行 新翠邨(Circle-K) 自動櫃員機",
        "area": "新界",
        "district": "沙田",
        "address": "新界沙田新翠邨商場地下6號Circle-K便利店",
        "detail": null,
        "lat": "22.36917",
        "lng": "114.181",
        "workHrs": null,
        "atm24": true,
        "service": "現金提款\n輪椅通道 (自動櫃員機)"
    },
    {
        "atm_type": "hsbc",
        "bank_type": "匯豐銀行",
        "name": "匯豐銀行 新田圍邨理財易中心",
        "area": "新界",
        "district": "沙田",
        "address": "新界沙田新田圍邨商場5樓",
        "detail": null,
        "lat": "22.37032",
        "lng": "114.18583",
        "workHrs": null,
        "atm24": true,
        "service": "現金提款\n輪椅通道 (自動櫃員機)"
    },
    {
        "atm_type": "hsbc",
        "bank_type": "匯豐銀行",
        "name": "匯豐銀行 隆亨邨自動櫃員機",
        "area": "新界",
        "district": "沙田",
        "address": "新界沙田隆亨邨隆亨商場2樓公共走廊自動櫃員機位",
        "detail": null,
        "lat": "22.3681",
        "lng": "114.17965",
        "workHrs": null,
        "atm24": true,
        "service": "現金提款\n輪椅通道 (自動櫃員機)"
    },
    {
        "atm_type": "hsbc",
        "bank_type": "匯豐銀行",
        "name": "匯豐銀行 秦石邨自動櫃員機",
        "area": "新界",
        "district": "沙田",
        "address": "新界沙田秦石邨秦石商場68-69號舖對出空地",
        "detail": null,
        "lat": "22.37322",
        "lng": "114.18686",
        "workHrs": {
            "monday": "05:00 - 00:00",
            "tuesday": "05:00 - 00:00",
            "wednesday": "05:00 - 00:00",
            "thursday": "05:00 - 00:00",
            "friday": "05:00 - 00:00",
            "saturday": "05:00 - 00:00",
            "sunday": "05:00 - 00:00"
        },
        "atm24": false,
        "service": "現金提款\n輪椅通道 (自動櫃員機)"
    },
    {
        "atm_type": "hsbc",
        "bank_type": "匯豐銀行",
        "name": "匯豐銀行 大圍理財易中心",
        "area": "新界",
        "district": "沙田",
        "address": "新界沙田港鐵大圍站42-44號舖",
        "detail": null,
        "lat": "22.372817",
        "lng": "114.178151",
        "workHrs": {
            "monday": "05:45 - 00:55",
            "tuesday": "05:45 - 00:55",
            "wednesday": "05:45 - 00:55",
            "thursday": "05:45 - 00:55",
            "friday": "05:45 - 00:55",
            "saturday": "05:45 - 00:55",
            "sunday": "05:45 - 00:55"
        },
        "atm24": false,
        "service": "輪椅通道 (自動櫃員機)\n現金存款\n更新存摺簿交易資料\n支票存款\n現金提款 (港幣及人民幣)"
    },
    {
        "atm_type": "hsbc",
        "bank_type": "匯豐銀行",
        "name": "匯豐銀行 港鐵大圍站理財易中心",
        "area": "新界",
        "district": "沙田",
        "address": "新界沙田大圍港鐵大圍站(收費區內)",
        "detail": null,
        "lat": "22.37329",
        "lng": "114.17874",
        "workHrs": {
            "monday": "05:45 - 00:55",
            "tuesday": "05:45 - 00:55",
            "wednesday": "05:45 - 00:55",
            "thursday": "05:45 - 00:55",
            "friday": "05:45 - 00:55",
            "saturday": "05:45 - 00:55",
            "sunday": "05:45 - 00:55"
        },
        "atm24": false,
        "service": "輪椅通道 (自動櫃員機)\n現金提款 (港幣及人民幣)"
    },
    {
        "atm_type": "hsbc",
        "bank_type": "匯豐銀行",
        "name": "匯豐銀行 顯徑邨理財易中心",
        "area": "新界",
        "district": "沙田",
        "address": "新界沙田顯徑邨商場B翼地下",
        "detail": null,
        "lat": "22.36317",
        "lng": "114.17128",
        "workHrs": null,
        "atm24": true,
        "service": "現金提款"
    },
    {
        "atm_type": "hsbc",
        "bank_type": "匯豐銀行",
        "name": "匯豐銀行 廣源邨理財易中心",
        "area": "新界",
        "district": "沙田",
        "address": "新界沙田廣源邨商場第1座4號舖",
        "detail": null,
        "lat": "22.38065",
        "lng": "114.21531",
        "workHrs": null,
        "atm24": true,
        "service": "現金提款\n輪椅通道 (自動櫃員機)"
    },
    {
        "atm_type": "hsbc",
        "bank_type": "匯豐銀行",
        "name": "匯豐銀行 石門邨自動櫃員機",
        "area": "新界",
        "district": "沙田",
        "address": "新界沙田石門邨健硕樓地下空位自動櫃員機",
        "detail": null,
        "lat": "22.387182",
        "lng": "114.209157",
        "workHrs": null,
        "atm24": true,
        "service": "現金提款\n輪椅通道 (自動櫃員機)"
    },
    {
        "atm_type": "hsbc",
        "bank_type": "匯豐銀行",
        "name": "匯豐銀行 港鐵石門站自動櫃員機",
        "area": "新界",
        "district": "沙田",
        "address": "新界沙田港鐵石門站收費區內4B號舖",
        "detail": null,
        "lat": "22.38785",
        "lng": "114.20846",
        "workHrs": {
            "monday": "05:30 - 01:15",
            "tuesday": "05:30 - 01:15",
            "wednesday": "05:30 - 01:15",
            "thursday": "05:30 - 01:15",
            "friday": "05:30 - 01:15",
            "saturday": "05:30 - 01:15",
            "sunday": "05:30 - 01:15"
        },
        "atm24": false,
        "service": "現金提款\n輪椅通道 (自動櫃員機)"
    },
    {
        "atm_type": "hsbc",
        "bank_type": "匯豐銀行",
        "name": "匯豐銀行 港鐵第一城站自動櫃員機",
        "area": "新界",
        "district": "沙田",
        "address": "新界沙田港鐵第一城站收費區內7號舖",
        "detail": null,
        "lat": "22.38288",
        "lng": "114.20354",
        "workHrs": {
            "monday": "06:00 - 01:00",
            "tuesday": "06:00 - 01:00",
            "wednesday": "06:00 - 01:00",
            "thursday": "06:00 - 01:00",
            "friday": "06:00 - 01:00",
            "saturday": "06:00 - 01:00",
            "sunday": "06:00 - 01:00"
        },
        "atm24": false,
        "service": "現金提款\n輪椅通道 (自動櫃員機)"
    },
    {
        "atm_type": "hsbc",
        "bank_type": "匯豐銀行",
        "name": "匯豐銀行 普通道(7-Eleven) 自動櫃員機",
        "area": "新界",
        "district": "西貢",
        "address": "新界西貢普通道11A,15-15A號舖地下7-Eleven便利店",
        "detail": null,
        "lat": "22.38177",
        "lng": "114.27057",
        "workHrs": null,
        "atm24": true,
        "service": "現金提款"
    },
    {
        "atm_type": "hsbc",
        "bank_type": "匯豐銀行",
        "name": "匯豐銀行 沙田第一城理財易中心",
        "area": "新界",
        "district": "沙田",
        "address": "新界沙田第一城置富第一城 . 樂薈地下15-21號舖",
        "detail": null,
        "lat": "22.387133",
        "lng": "114.203256",
        "workHrs": null,
        "atm24": true,
        "service": "輪椅通道 (自動櫃員機)\n現金存款\n更新存摺簿交易資料\n支票存款\n現金提款 (港幣及人民幣)"
    },
    {
        "atm_type": "hsbc",
        "bank_type": "匯豐銀行",
        "name": "匯豐銀行 長沙灣商業客戶服務中心",
        "area": "九龍",
        "district": "深水埗區",
        "address": "九龍長沙灣青山道654至656號浪淘大廈地下",
        "detail": null,
        "lat": "22.338592",
        "lng": "114.148272",
        "workHrs": {
            "monday": "09:30 - 17:00",
            "tuesday": "09:30 - 17:00",
            "wednesday": "09:30 - 17:00",
            "thursday": "09:30 - 17:00",
            "friday": "09:30 - 17:00",
            "saturday": "-",
            "sunday": "-"
        },
        "atm24": true,
        "service": "現金提款\n外幣兌換服務\n輪椅通道 (自動櫃員機)\n現金存款\n輪椅通道 (分行)\n工商金融服務櫃檯\n支票存款"
    },
    {
        "atm_type": "hsbc",
        "bank_type": "匯豐銀行",
        "name": "匯豐銀行 長沙灣廣場理財易中心",
        "area": "九龍",
        "district": "深水埗",
        "address": "九龍長沙灣道833號長沙灣廣場1樓116C號舖及128A號舖",
        "detail": null,
        "lat": "22.337255",
        "lng": "114.149065",
        "workHrs": {
            "monday": "06:00 - 00:00",
            "tuesday": "06:00 - 00:00",
            "wednesday": "06:00 - 00:00",
            "thursday": "06:00 - 00:00",
            "friday": "06:00 - 00:00",
            "saturday": "06:00 - 00:00",
            "sunday": "06:00 - 00:00"
        },
        "atm24": false,
        "service": "現金提款\n輪椅通道 (自動櫃員機)\n現金存款\n更新存摺簿交易資料\n支票存款"
    },
    {
        "atm_type": "hsbc",
        "bank_type": "匯豐銀行",
        "name": "匯豐銀行 長沙灣廣場入票易",
        "area": "九龍",
        "district": "深水埗",
        "address": "九龍長沙灣道833號長沙灣廣場1樓119號舖對面",
        "detail": null,
        "lat": "22.33713",
        "lng": "114.14845",
        "workHrs": {
            "monday": "07:00 - 00:00",
            "tuesday": "07:00 - 00:00",
            "wednesday": "07:00 - 00:00",
            "thursday": "07:00 - 00:00",
            "friday": "07:00 - 00:00",
            "saturday": "07:00 - 00:00",
            "sunday": "07:00 - 00:00"
        },
        "atm24": false,
        "service": "支票存款"
    },
    {
        "atm_type": "hsbc",
        "bank_type": "匯豐銀行",
        "name": "匯豐銀行 青山道332號 (7-Eleven) 自動櫃員機",
        "area": "九龍",
        "district": "深水埗",
        "address": "九龍深水埗青山道 332 號地下7-Eleven便利店",
        "detail": null,
        "lat": "22.338706",
        "lng": "114.156186",
        "workHrs": null,
        "atm24": true,
        "service": "現金提款\n更新存摺簿交易資料"
    },
    {
        "atm_type": "hsbc",
        "bank_type": "匯豐銀行",
        "name": "匯豐銀行 元州邨理財易中心",
        "area": "九龍",
        "district": "深水埗",
        "address": "香港九龍長沙灣元州街303號元州商場1樓F08室",
        "detail": null,
        "lat": "22.33756",
        "lng": "114.1562",
        "workHrs": {
            "monday": "06:00 - 00:00",
            "tuesday": "06:00 - 00:00",
            "wednesday": "06:00 - 00:00",
            "thursday": "06:00 - 00:00",
            "friday": "06:00 - 00:00",
            "saturday": "06:00 - 00:00",
            "sunday": "06:00 - 00:00"
        },
        "atm24": false,
        "service": "現金提款\n輪椅通道 (自動櫃員機)\n現金存款\n更新存摺簿交易資料\n支票存款"
    },
    {
        "atm_type": "hsbc",
        "bank_type": "匯豐銀行",
        "name": "匯豐銀行 昇悅居理財易中心",
        "area": "九龍",
        "district": "深水埗",
        "address": "九龍荔枝角道833號昇悅居昇悅商場一樓陳列櫃4",
        "detail": null,
        "lat": "22.33469",
        "lng": "114.14893",
        "workHrs": {
            "monday": "07:00 - 23:00",
            "tuesday": "07:00 - 23:00",
            "wednesday": "07:00 - 23:00",
            "thursday": "07:00 - 23:00",
            "friday": "07:00 - 23:00",
            "saturday": "07:00 - 23:00",
            "sunday": "07:00 - 23:00"
        },
        "atm24": false,
        "service": "現金提款\n輪椅通道 (自動櫃員機)"
    },
    {
        "atm_type": "hsbc",
        "bank_type": "匯豐銀行",
        "name": "匯豐銀行 幸福邨自動櫃員機",
        "area": "九龍",
        "district": "深水埗",
        "address": "九龍長沙灣幸祥街幸福邨幸福邨商場1樓1號自動櫃員機位",
        "detail": null,
        "lat": "22.33535",
        "lng": "114.15452",
        "workHrs": {
            "monday": "09:00 - 22:00",
            "tuesday": "09:00 - 22:00",
            "wednesday": "09:00 - 22:00",
            "thursday": "09:00 - 22:00",
            "friday": "09:00 - 22:00",
            "saturday": "09:00 - 22:00",
            "sunday": "09:00 - 22:00"
        },
        "atm24": false,
        "service": "現金提款\n輪椅通道 (自動櫃員機)"
    },
    {
        "atm_type": "hsbc",
        "bank_type": "匯豐銀行",
        "name": "匯豐銀行 李鄭屋邨自動櫃員機",
        "area": "九龍",
        "district": "深水埗",
        "address": "九龍長沙灣李鄭屋邨李鄭屋商場地下",
        "detail": null,
        "lat": "22.33869",
        "lng": "114.15857",
        "workHrs": null,
        "atm24": true,
        "service": "現金提款\n輪椅通道 (自動櫃員機)"
    },
    {
        "atm_type": "hsbc",
        "bank_type": "匯豐銀行",
        "name": "匯豐銀行 海麗邨理財易中心",
        "area": "九龍",
        "district": "深水埗",
        "address": "九龍深水埗海麗邨海麗商場地下1號舖側空地",
        "detail": null,
        "lat": "22.33257",
        "lng": "114.14682",
        "workHrs": null,
        "atm24": true,
        "service": "現金提款\n輪椅通道 (自動櫃員機)"
    },
    {
        "atm_type": "hsbc",
        "bank_type": "匯豐銀行",
        "name": "匯豐銀行 麗閣邨理財易中心",
        "area": "九龍",
        "district": "深水埗",
        "address": "九龍深水埗麗閣邨麗閣商場地下20A號舖",
        "detail": null,
        "lat": "22.33343",
        "lng": "114.15679",
        "workHrs": null,
        "atm24": true,
        "service": "現金提款\n輪椅通道 (自動櫃員機)"
    },
    {
        "atm_type": "hsbc",
        "bank_type": "匯豐銀行",
        "name": "匯豐銀行 曼坊理財易中心",
        "area": "九龍",
        "district": "深水埗",
        "address": "九龍荔枝角寶輪街一號曼坊地下G11號舖",
        "detail": null,
        "lat": "22.334288",
        "lng": "114.142394",
        "workHrs": null,
        "atm24": true,
        "service": "現金提款\n輪椅通道 (自動櫃員機)\n現金存款\n更新存摺簿交易資料\n支票存款"
    },
    {
        "atm_type": "hsbc",
        "bank_type": "匯豐銀行",
        "name": "匯豐銀行 家居城自動櫃員機",
        "area": "新界",
        "district": "葵青",
        "address": "新界葵涌盈暉臺家居城景荔徑8號1樓",
        "detail": null,
        "lat": "22.3418",
        "lng": "114.137725",
        "workHrs": {
            "monday": "10:00 - 22:00",
            "tuesday": "10:00 - 22:00",
            "wednesday": "10:00 - 22:00",
            "thursday": "10:00 - 22:00",
            "friday": "10:00 - 22:00",
            "saturday": "10:00 - 22:00",
            "sunday": "10:00 - 22:00"
        },
        "atm24": false,
        "service": "現金提款\n輪椅通道 (自動櫃員機)"
    },
    {
        "atm_type": "hsbc",
        "bank_type": "匯豐銀行",
        "name": "匯豐銀行 澤安邨理財易中心",
        "area": "九龍",
        "district": "觀塘",
        "address": "九龍澤安邨富澤樓地下3號舖",
        "detail": null,
        "lat": "22.339775",
        "lng": "114.164734",
        "workHrs": null,
        "atm24": true,
        "service": "現金提款"
    },
    {
        "atm_type": "hsbc",
        "bank_type": "匯豐銀行",
        "name": "匯豐銀行 港鐵美孚站自動櫃員機",
        "area": "九龍",
        "district": "深水埗",
        "address": "九龍港鐵美孚站收費區外 MEF ATM 23 號自動櫃員機機位",
        "detail": null,
        "lat": "22.33783",
        "lng": "114.13643",
        "workHrs": {
            "monday": "06:00 - 00:30",
            "tuesday": "06:00 - 00:30",
            "wednesday": "06:00 - 00:30",
            "thursday": "06:00 - 00:30",
            "friday": "06:00 - 00:30",
            "saturday": "06:00 - 00:30",
            "sunday": "06:00 - 00:30"
        },
        "atm24": false,
        "service": "現金提款\n輪椅通道 (自動櫃員機)"
    },
    {
        "atm_type": "hsbc",
        "bank_type": "匯豐銀行",
        "name": "匯豐銀行 瑪嘉烈醫院理財易中心",
        "area": "九龍",
        "district": "深水埗",
        "address": "九龍荔枝角荔景山道瑪嘉烈醫院主樓地下",
        "detail": null,
        "lat": "22.3402",
        "lng": "114.13484",
        "workHrs": null,
        "atm24": true,
        "service": "現金提款\n輪椅通道 (自動櫃員機)"
    },
    {
        "atm_type": "hsbc",
        "bank_type": "匯豐銀行",
        "name": "匯豐銀行 深水埗理財易中心",
        "area": "九龍",
        "district": "深水埗",
        "address": "九龍深水埗元州街73號富雅閣地下",
        "detail": null,
        "lat": "22.33246",
        "lng": "114.16283",
        "workHrs": null,
        "atm24": true,
        "service": "現金提款\n輪椅通道 (自動櫃員機)\n現金存款\n更新存摺簿交易資料\n支票存款"
    },
    {
        "atm_type": "hsbc",
        "bank_type": "匯豐銀行",
        "name": "匯豐銀行 福榮街 (7-Eleven) 自動櫃員機",
        "area": "九龍",
        "district": "深水埗",
        "address": "九龍深水埗福榮街68號地下 A 舖 7-Eleven便利店",
        "detail": null,
        "lat": "22.33172",
        "lng": "114.16326",
        "workHrs": null,
        "atm24": true,
        "service": "現金提款"
    },
    {
        "atm_type": "hsbc",
        "bank_type": "匯豐銀行",
        "name": "匯豐銀行 白田邨自動櫃員機",
        "area": "九龍",
        "district": "深水埗",
        "address": "九龍石硤尾白田邨麗田樓地下11至20號單位外空地",
        "detail": null,
        "lat": "22.33528",
        "lng": "114.16742",
        "workHrs": null,
        "atm24": true,
        "service": "現金提款\n輪椅通道 (自動櫃員機)"
    },
    {
        "atm_type": "hsbc",
        "bank_type": "匯豐銀行",
        "name": "匯豐銀行 天馬苑自動櫃員機",
        "area": "九龍",
        "district": "黃大仙",
        "address": "九龍天馬苑天馬苑商埸自動櫃員機1號",
        "detail": null,
        "lat": "22.342862",
        "lng": "114.186723",
        "workHrs": {
            "monday": "09:00 - 22:00",
            "tuesday": "09:00 - 22:00",
            "wednesday": "09:00 - 22:00",
            "thursday": "09:00 - 22:00",
            "friday": "09:00 - 22:00",
            "saturday": "09:00 - 22:00",
            "sunday": "09:00 - 22:00"
        },
        "atm24": false,
        "service": "現金提款\n輪椅通道 (自動櫃員機)"
    },
    {
        "atm_type": "hsbc",
        "bank_type": "匯豐銀行",
        "name": "匯豐銀行 樂富理財易中心",
        "area": "九龍",
        "district": "黃大仙",
        "address": "九龍橫頭磡樂富廣場UG2樓L202號舖",
        "detail": null,
        "lat": "22.33762",
        "lng": "114.187589",
        "workHrs": null,
        "atm24": true,
        "service": "現金提款\n輪椅通道 (自動櫃員機)\n現金存款\n更新存摺簿交易資料\n支票存款"
    },
    {
        "atm_type": "hsbc",
        "bank_type": "匯豐銀行",
        "name": "匯豐銀行 竹園南邨自動櫃員機",
        "area": "九龍",
        "district": "黃大仙",
        "address": "九龍 竹園道 15 號 竹園商埸 1 樓 自動櫃員機",
        "detail": null,
        "lat": "22.345015",
        "lng": "114.193085",
        "workHrs": null,
        "atm24": true,
        "service": "現金提款\n輪椅通道 (自動櫃員機)"
    },
    {
        "atm_type": "hsbc",
        "bank_type": "匯豐銀行",
        "name": "匯豐銀行 黃大仙中心理財易中心",
        "area": "九龍",
        "district": "黃大仙",
        "address": "九龍黃大仙黃大仙下邨正德街103號 黃大仙中心地下高層UG13C號舖及UG14A號舖",
        "detail": null,
        "lat": "22.3414",
        "lng": "114.19437",
        "workHrs": {
            "monday": "05:30 - 23:30",
            "tuesday": "05:30 - 23:30",
            "wednesday": "05:30 - 23:30",
            "thursday": "05:30 - 23:30",
            "friday": "05:30 - 23:30",
            "saturday": "05:30 - 23:30",
            "sunday": "05:30 - 23:30"
        },
        "atm24": false,
        "service": "現金提款\n輪椅通道 (自動櫃員機)\n現金存款\n更新存摺簿交易資料\n支票存款"
    },
    {
        "atm_type": "hsbc",
        "bank_type": "匯豐銀行",
        "name": "匯豐銀行 港鐵九龍塘車站理財易中心",
        "area": "九龍",
        "district": "九龍城",
        "address": "九龍塘港鐵站KOT 126號商舖",
        "detail": null,
        "lat": "22.33739",
        "lng": "114.17567",
        "workHrs": {
            "monday": "05:36 - 01:02",
            "tuesday": "05:36 - 01:02",
            "wednesday": "05:36 - 01:02",
            "thursday": "05:36 - 01:02",
            "friday": "05:36 - 01:02",
            "saturday": "05:36 - 01:02",
            "sunday": "05:36 - 01:02"
        },
        "atm24": false,
        "service": "輪椅通道 (自動櫃員機)\n現金提款 (港幣及人民幣)"
    },
    {
        "atm_type": "hsbc",
        "bank_type": "匯豐銀行",
        "name": "匯豐銀行 黃大仙理財易中心",
        "area": "九龍",
        "district": "黃大仙",
        "address": "九龍黃大仙龍翔道120號新光中心2樓6-8號及17-25號舖",
        "detail": null,
        "lat": "22.341991",
        "lng": "114.196261",
        "workHrs": {
            "monday": "07:00 - 23:30",
            "tuesday": "07:00 - 23:30",
            "wednesday": "07:00 - 23:30",
            "thursday": "07:00 - 23:30",
            "friday": "07:00 - 23:30",
            "saturday": "07:00 - 23:30",
            "sunday": "07:00 - 23:30"
        },
        "atm24": false,
        "service": "現金提款\n輪椅通道 (自動櫃員機)\n現金存款\n更新存摺簿交易資料\n支票存款"
    },
    {
        "atm_type": "hsbc",
        "bank_type": "匯豐銀行",
        "name": "匯豐銀行 又一城理財易中心",
        "area": "九龍",
        "district": "深水埗",
        "address": "九龍九龍塘達之路80號又一城LG2-01",
        "detail": null,
        "lat": "22.337282",
        "lng": "114.17459",
        "workHrs": null,
        "atm24": true,
        "service": "輪椅通道 (自動櫃員機)\n現金存款\n更新存摺簿交易資料\n支票存款\n現金提款 (港幣及人民幣)"
    },
    {
        "atm_type": "hsbc",
        "bank_type": "匯豐銀行",
        "name": "匯豐銀行 又一城港鐵接駁通道理財易中心",
        "area": "九龍",
        "district": "九龍城",
        "address": "九龍九龍塘達之路80號又一城港鐵接駁通道",
        "detail": null,
        "lat": "22.33694",
        "lng": "114.17486",
        "workHrs": {
            "monday": "06:00 - 01:00",
            "tuesday": "06:00 - 01:00",
            "wednesday": "06:00 - 01:00",
            "thursday": "06:00 - 01:00",
            "friday": "06:00 - 01:00",
            "saturday": "06:00 - 01:00",
            "sunday": "06:00 - 01:00"
        },
        "atm24": false,
        "service": "輪椅通道 (自動櫃員機)\n現金提款 (港幣及人民幣)"
    },
    {
        "atm_type": "hsbc",
        "bank_type": "匯豐銀行",
        "name": "匯豐銀行 大有街分行",
        "area": "九龍",
        "district": "黃大仙區",
        "address": "九龍新蒲崗大有街26-28號",
        "detail": null,
        "lat": "22.337272",
        "lng": "114.197882",
        "workHrs": {
            "monday": "09:00 - 16:30",
            "tuesday": "09:00 - 16:30",
            "wednesday": "09:00 - 16:30",
            "thursday": "09:00 - 16:30",
            "friday": "09:00 - 17:00",
            "saturday": "09:00 - 13:00",
            "sunday": "-"
        },
        "atm24": true,
        "service": "現金提款\n外幣兌換服務\n匯豐卓越理財服務櫃檯\n現金存款\n網上理財服務\n輪椅通道 (分行)\n更新存摺簿交易資料\n匯豐運籌理財服務櫃檯\n工商金融服務櫃檯\n支票存款"
    },
    {
        "atm_type": "hsbc",
        "bank_type": "匯豐銀行",
        "name": "匯豐銀行 新蒲崗理財易中心",
        "area": "九龍",
        "district": "黃大仙",
        "address": "九龍新蒲崗爵祿街98號爵祿居地下C舖",
        "detail": null,
        "lat": "22.33495",
        "lng": "114.19762",
        "workHrs": null,
        "atm24": true,
        "service": "現金提款\n輪椅通道 (自動櫃員機)\n現金存款\n更新存摺簿交易資料\n支票存款"
    },
    {
        "atm_type": "hsbc",
        "bank_type": "匯豐銀行",
        "name": "匯豐銀行 Mikiki自動櫃員機",
        "area": "九龍",
        "district": "黃大仙",
        "address": "九龍新蒲崗太子道東638號Mikiki 地下自動櫃員機機位A",
        "detail": null,
        "lat": "22.333459",
        "lng": "114.196559",
        "workHrs": null,
        "atm24": true,
        "service": "現金提款\n輪椅通道 (自動櫃員機)"
    },
    {
        "atm_type": "hsbc",
        "bank_type": "匯豐銀行",
        "name": "匯豐銀行 鳳德邨理財易中心",
        "area": "九龍",
        "district": "黃大仙",
        "address": "九龍鑽石山鳳德邨鳳德商場227號舖",
        "detail": null,
        "lat": "22.34386",
        "lng": "114.19996",
        "workHrs": null,
        "atm24": true,
        "service": "現金提款"
    },
    {
        "atm_type": "hsbc",
        "bank_type": "匯豐銀行",
        "name": "匯豐銀行 南山邨自動櫃員機",
        "area": "九龍",
        "district": "深水埗",
        "address": "九龍南山邨近南樂樓地下112號舖",
        "detail": null,
        "lat": "22.33523",
        "lng": "114.171542",
        "workHrs": null,
        "atm24": true,
        "service": "現金提款"
    },
    {
        "atm_type": "hsbc",
        "bank_type": "匯豐銀行",
        "name": "匯豐銀行 慈雲山中心理財易中心",
        "area": "九龍",
        "district": "黃大仙",
        "address": "九龍慈雲山毓華街23號慈雲山中心326號舖",
        "detail": null,
        "lat": "22.34858",
        "lng": "114.20057",
        "workHrs": null,
        "atm24": true,
        "service": "現金提款\n輪椅通道 (自動櫃員機)\n現金存款\n更新存摺簿交易資料"
    },
    {
        "atm_type": "hsbc",
        "bank_type": "匯豐銀行",
        "name": "匯豐銀行 港鐵南昌站理財易中心",
        "area": "九龍",
        "district": "深水埗",
        "address": "九龍深水埗港鐵南昌站收費區內14號舖",
        "detail": null,
        "lat": "22.3273",
        "lng": "114.15333",
        "workHrs": {
            "monday": "06:00 - 00:30",
            "tuesday": "06:00 - 00:30",
            "wednesday": "06:00 - 00:30",
            "thursday": "06:00 - 00:30",
            "friday": "06:00 - 00:30",
            "saturday": "06:00 - 00:30",
            "sunday": "06:00 - 00:30"
        },
        "atm24": false,
        "service": "現金提款\n輪椅通道 (自動櫃員機)\n更新存摺簿交易資料"
    },
    {
        "atm_type": "hsbc",
        "bank_type": "匯豐銀行",
        "name": "匯豐銀行 富昌邨理財易中心",
        "area": "九龍",
        "district": "深水埗",
        "address": "九龍深水埗富昌邨富昌商場1樓103號舖",
        "detail": null,
        "lat": "22.32759",
        "lng": "114.15464",
        "workHrs": {
            "monday": "06:00 - 00:00",
            "tuesday": "06:00 - 00:00",
            "wednesday": "06:00 - 00:00",
            "thursday": "06:00 - 00:00",
            "friday": "06:00 - 00:00",
            "saturday": "06:00 - 00:00",
            "sunday": "06:00 - 00:00"
        },
        "atm24": false,
        "service": "現金提款\n輪椅通道 (自動櫃員機)"
    },
    {
        "atm_type": "hsbc",
        "bank_type": "匯豐銀行",
        "name": "匯豐銀行 滙豐中心理財易中心",
        "area": "九龍",
        "district": "油尖旺",
        "address": "九龍大角咀深旺道一號滙豐中心高層地下D舖",
        "detail": null,
        "lat": "22.318177",
        "lng": "114.161031",
        "workHrs": null,
        "atm24": true,
        "service": "現金提款\n輪椅通道 (自動櫃員機)\n現金存款\n外幣現金提款\n禮券銷售\n更新存摺簿交易資料\n支票存款"
    },
    {
        "atm_type": "hsbc",
        "bank_type": "匯豐銀行",
        "name": "匯豐銀行 港灣豪庭廣場自動櫃員機",
        "area": "九龍",
        "district": "油尖旺",
        "address": "九龍大角咀港灣豪庭廣場地下公共走廊自動櫃員機位(近G30號舖)",
        "detail": null,
        "lat": "22.324274",
        "lng": "114.160502",
        "workHrs": {
            "monday": "07:00 - 00:00",
            "tuesday": "07:00 - 00:00",
            "wednesday": "07:00 - 00:00",
            "thursday": "07:00 - 00:00",
            "friday": "07:00 - 00:00",
            "saturday": "07:00 - 00:00",
            "sunday": "07:00 - 00:00"
        },
        "atm24": false,
        "service": "現金提款\n輪椅通道 (自動櫃員機)"
    },
    {
        "atm_type": "hsbc",
        "bank_type": "匯豐銀行",
        "name": "匯豐銀行 荔枝角道分行",
        "area": "九龍",
        "district": "深水埗區",
        "address": "九龍深水埗荔枝角道245號",
        "detail": null,
        "lat": "22.327247",
        "lng": "114.161867",
        "workHrs": {
            "monday": "09:00 - 16:30",
            "tuesday": "09:00 - 16:30",
            "wednesday": "09:00 - 16:30",
            "thursday": "09:00 - 16:30",
            "friday": "09:00 - 17:00",
            "saturday": "09:00 - 13:00",
            "sunday": "-"
        },
        "atm24": true,
        "service": "現金提款\n外幣兌換服務\n匯豐卓越理財服務櫃檯\n現金存款\n網上理財服務\n更新存摺簿交易資料\n匯豐運籌理財服務櫃檯\n支票存款"
    },
    {
        "atm_type": "hsbc",
        "bank_type": "匯豐銀行",
        "name": "匯豐銀行 西九龍中心理財易中心",
        "area": "九龍",
        "district": "深水埗",
        "address": "九龍深水埗欽州街西九龍中心1樓126號舖",
        "detail": null,
        "lat": "22.3309",
        "lng": "114.15956",
        "workHrs": null,
        "atm24": true,
        "service": "現金提款\n輪椅通道 (自動櫃員機)"
    },
    {
        "atm_type": "hsbc",
        "bank_type": "匯豐銀行",
        "name": "匯豐銀行 西九龍中心(3/F)理財易中心",
        "area": "九龍",
        "district": "深水埗",
        "address": "九龍深水埗欽州街37K西九龍中心3樓309-310舖",
        "detail": null,
        "lat": "22.331062",
        "lng": "114.160051",
        "workHrs": {
            "monday": "07:00 - 23:00",
            "tuesday": "07:00 - 23:00",
            "wednesday": "07:00 - 23:00",
            "thursday": "07:00 - 23:00",
            "friday": "07:00 - 23:00",
            "saturday": "07:00 - 23:00",
            "sunday": "07:00 - 23:00"
        },
        "atm24": false,
        "service": "現金提款\n輪椅通道 (自動櫃員機)\n現金存款\n更新存摺簿交易資料\n支票存款"
    },
    {
        "atm_type": "hsbc",
        "bank_type": "匯豐銀行",
        "name": "匯豐銀行 富榮花園(Circle-K) 自動櫃員機",
        "area": "九龍",
        "district": "油尖旺",
        "address": "九龍旺角西海泓道富榮花園地下32-33號舖Circle-K便利店",
        "detail": null,
        "lat": "22.31407",
        "lng": "114.1646",
        "workHrs": null,
        "atm24": true,
        "service": "現金提款"
    },
    {
        "atm_type": "hsbc",
        "bank_type": "匯豐銀行",
        "name": "匯豐銀行 桂林街 (7-Eleven) 自動櫃員機",
        "area": "九龍",
        "district": "深水埗",
        "address": "九龍深水埗桂林街133-135 號 地下B 舖 7-Eleven便利店",
        "detail": null,
        "lat": "22.33088",
        "lng": "114.16153",
        "workHrs": null,
        "atm24": true,
        "service": "現金提款"
    },
    {
        "atm_type": "hsbc",
        "bank_type": "匯豐銀行",
        "name": "匯豐銀行 九龍醫院理財易中心",
        "area": "九龍",
        "district": "九龍城",
        "address": "九龍九龍城亞皆老街147號A西翼地下低層",
        "detail": null,
        "lat": "22.32382",
        "lng": "114.18046",
        "workHrs": null,
        "atm24": true,
        "service": "現金提款\n輪椅通道 (自動櫃員機)"
    },
    {
        "atm_type": "hsbc",
        "bank_type": "匯豐銀行",
        "name": "匯豐銀行 港鐵旺角東站理財易中心",
        "area": "九龍",
        "district": "油尖旺",
        "address": "九龍旺角港鐵旺角東站收費區內MKK16號舖",
        "detail": null,
        "lat": "22.32226",
        "lng": "114.17263",
        "workHrs": {
            "monday": "06:00 - 00:00",
            "tuesday": "06:00 - 00:00",
            "wednesday": "06:00 - 00:00",
            "thursday": "06:00 - 00:00",
            "friday": "06:00 - 00:00",
            "saturday": "06:00 - 00:00",
            "sunday": "06:00 - 00:00"
        },
        "atm24": false,
        "service": "輪椅通道 (自動櫃員機)\n現金提款 (港幣及人民幣)"
    },
    {
        "atm_type": "hsbc",
        "bank_type": "匯豐銀行",
        "name": "匯豐銀行 水渠道(7-Eleven)自動櫃員機",
        "area": "九龍",
        "district": "油尖旺",
        "address": "九龍旺角水渠道34-36號東樂大樓地下A號舖",
        "detail": null,
        "lat": "22.323691",
        "lng": "114.169858",
        "workHrs": null,
        "atm24": true,
        "service": "現金提款 (港幣及人民幣)"
    },
    {
        "atm_type": "hsbc",
        "bank_type": "匯豐銀行",
        "name": "匯豐銀行 九龍警察總部自動櫃員機",
        "area": "九龍",
        "district": "九龍城",
        "address": "九龍九龍城亞皆老街190號",
        "detail": null,
        "lat": "22.32354",
        "lng": "114.18313",
        "workHrs": null,
        "atm24": true,
        "service": "現金提款\n輪椅通道 (自動櫃員機)"
    },
    {
        "atm_type": "hsbc",
        "bank_type": "匯豐銀行",
        "name": "匯豐銀行 通菜街126A號 (7-Eleven) 自動櫃員機",
        "area": "九龍",
        "district": "油尖旺",
        "address": "九龍旺角通菜街126A 號地下7-Eleven便利店",
        "detail": null,
        "lat": "22.32136",
        "lng": "114.17031",
        "workHrs": null,
        "atm24": true,
        "service": "現金提款"
    },
    {
        "atm_type": "hsbc",
        "bank_type": "匯豐銀行",
        "name": "匯豐銀行 始創中心理財易中心",
        "area": "九龍",
        "district": "油尖旺",
        "address": "九龍旺角彌敦道750號始創中心2樓218舖",
        "detail": null,
        "lat": "22.322617",
        "lng": "114.169031",
        "workHrs": {
            "monday": "07:00 - 00:00",
            "tuesday": "07:00 - 00:00",
            "wednesday": "07:00 - 00:00",
            "thursday": "07:00 - 00:00",
            "friday": "07:00 - 00:00",
            "saturday": "07:00 - 00:00",
            "sunday": "07:00 - 00:00"
        },
        "atm24": false,
        "service": "輪椅通道 (自動櫃員機)\n現金存款\n更新存摺簿交易資料\n支票存款\n現金提款 (港幣及人民幣)"
    },
    {
        "atm_type": "hsbc",
        "bank_type": "匯豐銀行",
        "name": "匯豐銀行 九龍城理財易中心",
        "area": "九龍",
        "district": "九龍城",
        "address": "九龍九龍城福佬村道18號地下",
        "detail": null,
        "lat": "22.32847",
        "lng": "114.187708",
        "workHrs": null,
        "atm24": true,
        "service": "現金提款\n輪椅通道 (自動櫃員機)\n現金存款\n更新存摺簿交易資料\n支票存款"
    },
    {
        "atm_type": "hsbc",
        "bank_type": "匯豐銀行",
        "name": "匯豐銀行 土瓜灣理財易中心",
        "area": "九龍",
        "district": "九龍城",
        "address": "九龍土瓜灣炮仗街142-144A",
        "detail": null,
        "lat": "22.320813",
        "lng": "114.189687",
        "workHrs": null,
        "atm24": true,
        "service": "現金提款\n輪椅通道 (自動櫃員機)\n現金存款\n更新存摺簿交易資料\n支票存款"
    },
    {
        "atm_type": "hsbc",
        "bank_type": "匯豐銀行",
        "name": "匯豐銀行 馬頭圍邨(Circle K) 自動櫃員機",
        "area": "九龍",
        "district": "九龍城",
        "address": "九龍馬頭圍邨洋葵樓地下111號舖",
        "detail": null,
        "lat": "22.322596",
        "lng": "114.18749",
        "workHrs": null,
        "atm24": true,
        "service": "現金提款"
    },
    {
        "atm_type": "hsbc",
        "bank_type": "匯豐銀行",
        "name": "匯豐銀行 北帝街(7-Eleven) 自動櫃員機",
        "area": "九龍",
        "district": "九龍城",
        "address": "九龍土瓜灣北帝街24-24A號地下A號舖7-Eleven便利店",
        "detail": null,
        "lat": "22.32032",
        "lng": "114.1881",
        "workHrs": null,
        "atm24": true,
        "service": "現金提款"
    },
    {
        "atm_type": "hsbc",
        "bank_type": "匯豐銀行",
        "name": "匯豐銀行 愛民理財易中心",
        "area": "九龍",
        "district": "九龍城",
        "address": "九龍愛民邨愛民商場1樓F23A號舖",
        "detail": null,
        "lat": "22.31214",
        "lng": "114.17867",
        "workHrs": {
            "monday": "06:00 - 00:00",
            "tuesday": "06:00 - 00:00",
            "wednesday": "06:00 - 00:00",
            "thursday": "06:00 - 00:00",
            "friday": "06:00 - 00:00",
            "saturday": "06:00 - 00:00",
            "sunday": "06:00 - 00:00"
        },
        "atm24": false,
        "service": "現金提款\n輪椅通道 (自動櫃員機)"
    },
    {
        "atm_type": "hsbc",
        "bank_type": "匯豐銀行",
        "name": "匯豐銀行 窩打老道分行",
        "area": "九龍",
        "district": "九龍城區",
        "address": "九龍何文田窩打老道71號",
        "detail": null,
        "lat": "22.31881",
        "lng": "114.175453",
        "workHrs": {
            "monday": "09:00 - 16:30",
            "tuesday": "09:00 - 16:30",
            "wednesday": "09:00 - 16:30",
            "thursday": "09:00 - 16:30",
            "friday": "09:00 - 17:00",
            "saturday": "09:00 - 13:00",
            "sunday": "-"
        },
        "atm24": true,
        "service": "現金提款\n外幣兌換服務\n輪椅通道 (自動櫃員機)\n現金存款\n網上理財服務\n輪椅通道 (分行)\n更新存摺簿交易資料\n匯豐運籌理財服務櫃檯\n支票存款"
    },
    {
        "atm_type": "hsbc",
        "bank_type": "匯豐銀行",
        "name": "匯豐銀行 房屋委員會理財易中心",
        "area": "九龍",
        "district": "九龍城",
        "address": "九龍何文田佛光街33號香港房屋委員會總辦事處地下",
        "detail": null,
        "lat": "22.3157",
        "lng": "114.18103",
        "workHrs": null,
        "atm24": true,
        "service": "現金提款"
    },
    {
        "atm_type": "hsbc",
        "bank_type": "匯豐銀行",
        "name": "匯豐銀行 豉油街(7-Eleven)自動櫃員機",
        "area": "九龍",
        "district": "油尖旺",
        "address": "九龍旺角豉油街60-140號鴻都大廈地下16號舖",
        "detail": null,
        "lat": "22.316942",
        "lng": "114.171765",
        "workHrs": null,
        "atm24": true,
        "service": "現金提款 (港幣及人民幣)"
    },
    {
        "atm_type": "hsbc",
        "bank_type": "匯豐銀行",
        "name": "匯豐銀行 何文田理財易中心",
        "area": "九龍",
        "district": "九龍城",
        "address": "九龍何文田何文田廣場2樓219號舖",
        "detail": null,
        "lat": "22.31631",
        "lng": "114.18186",
        "workHrs": {
            "monday": "06:00 - 00:00",
            "tuesday": "06:00 - 00:00",
            "wednesday": "06:00 - 00:00",
            "thursday": "06:00 - 00:00",
            "friday": "06:00 - 00:00",
            "saturday": "06:00 - 00:00",
            "sunday": "06:00 - 00:00"
        },
        "atm24": false,
        "service": "現金提款\n輪椅通道 (自動櫃員機)\n現金存款\n更新存摺簿交易資料"
    },
    {
        "atm_type": "hsbc",
        "bank_type": "匯豐銀行",
        "name": "匯豐銀行 康祐大廈理財易中心",
        "area": "九龍",
        "district": "油尖旺",
        "address": "九龍油麻地彌敦道528號康祐大廈地下",
        "detail": null,
        "lat": "22.31321",
        "lng": "114.17087",
        "workHrs": null,
        "atm24": true,
        "service": "現金提款\n輪椅通道 (自動櫃員機)\n現金存款\n更新存摺簿交易資料\n支票存款"
    },
    {
        "atm_type": "hsbc",
        "bank_type": "匯豐銀行",
        "name": "匯豐銀行 山東街50號理財易中心",
        "area": "九龍",
        "district": "油尖旺",
        "address": "九龍旺角山東街50號地下B舖",
        "detail": null,
        "lat": "22.317776",
        "lng": "114.171325",
        "workHrs": null,
        "atm24": true,
        "service": "輪椅通道 (自動櫃員機)\n現金提款 (港幣及人民幣)"
    },
    {
        "atm_type": "hsbc",
        "bank_type": "匯豐銀行",
        "name": "匯豐銀行 伊利沙伯醫院理財易中心",
        "area": "九龍",
        "district": "油尖旺",
        "address": "九龍加士居道依利沙伯醫院西翼地下",
        "detail": null,
        "lat": "22.30947",
        "lng": "114.1748",
        "workHrs": null,
        "atm24": true,
        "service": "現金提款"
    },
    {
        "atm_type": "hsbc",
        "bank_type": "匯豐銀行",
        "name": "匯豐銀行 通菜街(7-Eleven) 自動櫃員機",
        "area": "九龍",
        "district": "油尖旺",
        "address": "九龍旺角通菜街81 號地下 7-Eleven便利店",
        "detail": null,
        "lat": "22.31899",
        "lng": "114.17048",
        "workHrs": null,
        "atm24": true,
        "service": "現金提款"
    },
    {
        "atm_type": "hsbc",
        "bank_type": "匯豐銀行",
        "name": "匯豐銀行 旺角理財易中心",
        "area": "九龍",
        "district": "油尖旺",
        "address": "九龍旺角彌敦道673號低層地下",
        "detail": null,
        "lat": "22.31883",
        "lng": "114.16925",
        "workHrs": {
            "monday": "06:00 - 00:00",
            "tuesday": "06:00 - 00:00",
            "wednesday": "06:00 - 00:00",
            "thursday": "06:00 - 00:00",
            "friday": "06:00 - 00:00",
            "saturday": "06:00 - 00:00",
            "sunday": "06:00 - 00:00"
        },
        "atm24": false,
        "service": "現金提款\n輪椅通道 (自動櫃員機)\n現金存款\n外幣現金提款\n禮券銷售\n更新存摺簿交易資料\n支票存款"
    },
    {
        "atm_type": "hsbc",
        "bank_type": "匯豐銀行",
        "name": "匯豐銀行 旺角商業客戶服務中心",
        "area": "九龍",
        "district": "油尖旺區",
        "address": "九龍旺角彌敦道673號2樓",
        "detail": null,
        "lat": "22.31891",
        "lng": "114.169163",
        "workHrs": {
            "monday": "09:00 - 17:00",
            "tuesday": "09:00 - 17:00",
            "wednesday": "09:00 - 17:00",
            "thursday": "09:00 - 17:00",
            "friday": "09:00 - 17:00",
            "saturday": "09:00 - 13:00",
            "sunday": "-"
        },
        "atm24": false,
        "service": "現金提款\n外幣兌換服務\n現金存款\n輪椅通道 (分行)\n工商金融服務櫃檯\n支票存款\n延長服務時間"
    },
    {
        "atm_type": "hsbc",
        "bank_type": "匯豐銀行",
        "name": "匯豐銀行 翔龍灣廣場自動櫃員機",
        "area": "九龍",
        "district": "九龍城",
        "address": "九龍土瓜灣新碼頭街38號翔龍灣翔龍灣廣場地下ATM02 自動櫃員機位",
        "detail": null,
        "lat": "22.318959",
        "lng": "114.193627",
        "workHrs": null,
        "atm24": true,
        "service": "現金提款\n輪椅通道 (自動櫃員機)"
    },
    {
        "atm_type": "hsbc",
        "bank_type": "匯豐銀行",
        "name": "匯豐銀行 272馬頭圍道理財易中心",
        "area": "九龍",
        "district": "九龍城",
        "address": "九龍土瓜灣馬頭圍道272號福裕樓地下A號舖",
        "detail": null,
        "lat": "22.31532",
        "lng": "114.18743",
        "workHrs": null,
        "atm24": true,
        "service": "現金提款"
    },
    {
        "atm_type": "hsbc",
        "bank_type": "匯豐銀行",
        "name": "匯豐銀行 紅磡理財易中心",
        "area": "九龍",
        "district": "九龍城",
        "address": "九龍紅磡馬頭圍道37-39 號紅磡商業中心",
        "detail": null,
        "lat": "22.310322",
        "lng": "114.187748",
        "workHrs": null,
        "atm24": true,
        "service": "現金提款\n輪椅通道 (自動櫃員機)\n現金存款\n更新存摺簿交易資料\n支票存款"
    },
    {
        "atm_type": "hsbc",
        "bank_type": "匯豐銀行",
        "name": "匯豐銀行 富山邨理財易中心",
        "area": "九龍",
        "district": "黃大仙",
        "address": "九龍富山邨富信樓K1號舖",
        "detail": null,
        "lat": "22.34278",
        "lng": "114.20911",
        "workHrs": null,
        "atm24": true,
        "service": "現金提款"
    },
    {
        "atm_type": "hsbc",
        "bank_type": "匯豐銀行",
        "name": "匯豐銀行 彩雲邨自動櫃員機",
        "area": "九龍",
        "district": "黃大仙",
        "address": "九龍彩雲(一)邨彩雲3期商場2 樓B201 號舖側",
        "detail": null,
        "lat": "22.33393",
        "lng": "114.21442",
        "workHrs": null,
        "atm24": true,
        "service": "現金提款\n輪椅通道 (自動櫃員機)"
    },
    {
        "atm_type": "hsbc",
        "bank_type": "匯豐銀行",
        "name": "匯豐銀行 清水灣道8號理財易中心",
        "area": "九龍",
        "district": "觀塘",
        "address": "九龍清水灣道8號匯八坊地下G03舖",
        "detail": null,
        "lat": "22.3341",
        "lng": "114.20987",
        "workHrs": null,
        "atm24": true,
        "service": "現金提款\n輪椅通道 (自動櫃員機)\n現金存款\n更新存摺簿交易資料"
    },
    {
        "atm_type": "hsbc",
        "bank_type": "匯豐銀行",
        "name": "匯豐銀行 坪石邨自動櫃員機",
        "area": "九龍",
        "district": "觀塘",
        "address": "九龍坪石邨玉石樓地下正門入口側空地",
        "detail": null,
        "lat": "22.33352",
        "lng": "114.20953",
        "workHrs": null,
        "atm24": true,
        "service": "現金提款\n輪椅通道 (自動櫃員機)"
    },
    {
        "atm_type": "hsbc",
        "bank_type": "匯豐銀行",
        "name": "匯豐銀行 彩虹邨理財易中心",
        "area": "九龍",
        "district": "黃大仙",
        "address": "九龍彩虹邨金坪市場20號舖",
        "detail": null,
        "lat": "22.33515",
        "lng": "114.20533",
        "workHrs": null,
        "atm24": true,
        "service": "現金提款\n輪椅通道 (自動櫃員機)"
    },
    {
        "atm_type": "hsbc",
        "bank_type": "匯豐銀行",
        "name": "匯豐銀行 慈正邨自動櫃員機",
        "area": "九龍",
        "district": "黃大仙",
        "address": "九龍慈雲山慈正邨慈正商埸二期地下",
        "detail": null,
        "lat": "22.34956",
        "lng": "114.20214",
        "workHrs": null,
        "atm24": true,
        "service": "現金提款\n輪椅通道 (自動櫃員機)"
    },
    {
        "atm_type": "hsbc",
        "bank_type": "匯豐銀行",
        "name": "匯豐銀行 大埔仔邨理財易中心",
        "area": "新界",
        "district": "西貢",
        "address": "新界西貢清水灣道大埔仔村7號地下",
        "detail": null,
        "lat": "22.33694",
        "lng": "114.25938",
        "workHrs": null,
        "atm24": true,
        "service": "現金提款"
    },
    {
        "atm_type": "hsbc",
        "bank_type": "匯豐銀行",
        "name": "匯豐銀行 九龍灣商業客戶服務中心",
        "area": "九龍",
        "district": "九龍城區",
        "address": "九龍九龍灣臨興街32號美羅中心1期地下3B舖(只供工商客戶使用)",
        "detail": null,
        "lat": "22.324294",
        "lng": "114.210349",
        "workHrs": {
            "monday": "09:30 - 17:00",
            "tuesday": "09:30 - 17:00",
            "wednesday": "09:30 - 17:00",
            "thursday": "09:30 - 17:00",
            "friday": "09:30 - 17:00",
            "saturday": "-",
            "sunday": "-"
        },
        "atm24": true,
        "service": "現金提款\n外幣兌換服務\n輪椅通道 (自動櫃員機)\n現金存款\n網上理財服務\n輪椅通道 (分行)\n更新存摺簿交易資料\n工商金融服務櫃檯\n支票存款"
    },
    {
        "atm_type": "hsbc",
        "bank_type": "匯豐銀行",
        "name": "匯豐銀行 德福花園理財易中心",
        "area": "九龍",
        "district": "觀塘",
        "address": "九龍九龍灣德福廣場1期G座P16號舖",
        "detail": null,
        "lat": "22.323148",
        "lng": "114.212633",
        "workHrs": null,
        "atm24": true,
        "service": "輪椅通道 (自動櫃員機)\n現金存款\n更新存摺簿交易資料\n支票存款\n現金提款 (港幣及人民幣)"
    },
    {
        "atm_type": "hsbc",
        "bank_type": "匯豐銀行",
        "name": "匯豐銀行 啓業邨自動櫃員機",
        "area": "九龍",
        "district": "觀塘",
        "address": "九龍九龍灣啓業邨啓賢樓地下公共走廊自動櫃員機位",
        "detail": null,
        "lat": "22.32886",
        "lng": "114.20883",
        "workHrs": null,
        "atm24": true,
        "service": "現金提款\n輪椅通道 (自動櫃員機)"
    },
    {
        "atm_type": "hsbc",
        "bank_type": "匯豐銀行",
        "name": "匯豐銀行 彩盈邨(Circle-K) 自動櫃員機",
        "area": "九龍",
        "district": "觀塘",
        "address": "九龍牛頭角彩盈邨彩盈坊3號舖Circle-K便利店",
        "detail": null,
        "lat": "22.328363",
        "lng": "114.214307",
        "workHrs": null,
        "atm24": true,
        "service": "現金提款\n輪椅通道 (自動櫃員機)"
    },
    {
        "atm_type": "hsbc",
        "bank_type": "匯豐銀行",
        "name": "匯豐銀行 彩德邨自動櫃員機",
        "area": "九龍",
        "district": "觀塘",
        "address": "九龍彩德邨彩德商場5樓(515號舖側)近2號升降機空地",
        "detail": null,
        "lat": "22.330194",
        "lng": "114.212365",
        "workHrs": {
            "monday": "06:00 - 00:00",
            "tuesday": "06:00 - 00:00",
            "wednesday": "06:00 - 00:00",
            "thursday": "06:00 - 00:00",
            "friday": "06:00 - 00:00",
            "saturday": "06:00 - 00:00",
            "sunday": "06:00 - 00:00"
        },
        "atm24": false,
        "service": "現金提款\n輪椅通道 (自動櫃員機)"
    },
    {
        "atm_type": "hsbc",
        "bank_type": "匯豐銀行",
        "name": "匯豐銀行 淘大花園分行",
        "area": "九龍",
        "district": "觀塘區",
        "address": "九龍牛頭角牛頭角道77號淘大商場第2期地下G193-200及203號舖",
        "detail": null,
        "lat": "22.324526",
        "lng": "114.215773",
        "workHrs": {
            "monday": "09:00 - 16:30",
            "tuesday": "09:00 - 16:30",
            "wednesday": "09:00 - 16:30",
            "thursday": "09:00 - 16:30",
            "friday": "09:00 - 17:00",
            "saturday": "09:00 - 13:00",
            "sunday": "-"
        },
        "atm24": true,
        "service": "現金提款\n外幣兌換服務\n輪椅通道 (自動櫃員機)\n匯豐卓越理財服務櫃檯\n網上理財服務\n輪椅通道 (分行)\n匯豐運籌理財服務櫃檯"
    },
    {
        "atm_type": "hsbc",
        "bank_type": "匯豐銀行",
        "name": "匯豐銀行 淘大花園理財易中心",
        "area": "九龍",
        "district": "觀塘",
        "address": "九龍牛頭角牛頭角道77號淘大商場第2期地下G193-200及203號舖",
        "detail": null,
        "lat": "22.324372",
        "lng": "114.215877",
        "workHrs": null,
        "atm24": true,
        "service": "輪椅通道 (自動櫃員機)\n現金存款\n更新存摺簿交易資料\n支票存款\n現金提款 (港幣及人民幣)"
    },
    {
        "atm_type": "hsbc",
        "bank_type": "匯豐銀行",
        "name": "匯豐銀行 麗晶花園理財易中心",
        "area": "九龍",
        "district": "觀塘",
        "address": "九龍九龍灣宏光道80號麗晶商場地下G3號舖",
        "detail": null,
        "lat": "22.32967",
        "lng": "114.20596",
        "workHrs": null,
        "atm24": true,
        "service": "現金提款\n輪椅通道 (自動櫃員機)"
    },
    {
        "atm_type": "hsbc",
        "bank_type": "匯豐銀行",
        "name": "匯豐銀行 國際展貿中心理財易中心",
        "area": "九龍",
        "district": "觀塘",
        "address": "九龍九龍灣展貿徑1號國際展貿中心地下陳列櫃01A",
        "detail": null,
        "lat": "22.32386",
        "lng": "114.20387",
        "workHrs": {
            "monday": "07:00 - 02:00",
            "tuesday": "07:00 - 02:00",
            "wednesday": "07:00 - 02:00",
            "thursday": "07:00 - 02:00",
            "friday": "07:00 - 02:00",
            "saturday": "07:00 - 02:00",
            "sunday": "07:00 - 02:00"
        },
        "atm24": false,
        "service": "現金提款\n輪椅通道 (自動櫃員機)"
    },
    {
        "atm_type": "hsbc",
        "bank_type": "匯豐銀行",
        "name": "匯豐銀行 牛頭角上邨自動櫃員機",
        "area": "九龍",
        "district": "觀塘",
        "address": "九龍牛頭角上邨常泰樓空地自動櫃員機",
        "detail": null,
        "lat": "22.320433",
        "lng": "114.216185",
        "workHrs": null,
        "atm24": true,
        "service": "現金提款"
    },
    {
        "atm_type": "hsbc",
        "bank_type": "匯豐銀行",
        "name": "匯豐銀行 晴朗商場理財易中心",
        "area": "九龍",
        "district": "觀塘",
        "address": "九龍九龍城承啟道28號晴朗商場地下 B007 商舖",
        "detail": null,
        "lat": "22.331037",
        "lng": "114.203106",
        "workHrs": null,
        "atm24": true,
        "service": "現金提款\n輪椅通道 (自動櫃員機)\n現金存款\n更新存摺簿交易資料\n支票存款"
    },
    {
        "atm_type": "hsbc",
        "bank_type": "匯豐銀行",
        "name": "匯豐銀行 順天邨理財易中心",
        "area": "九龍",
        "district": "觀塘",
        "address": "九龍觀塘順天邨天榮樓地下104A號舖",
        "detail": null,
        "lat": "22.32615",
        "lng": "114.2262",
        "workHrs": null,
        "atm24": true,
        "service": "現金提款\n輪椅通道 (自動櫃員機)"
    },
    {
        "atm_type": "hsbc",
        "bank_type": "匯豐銀行",
        "name": "匯豐銀行 順利邨理財易中心",
        "area": "九龍",
        "district": "觀塘",
        "address": "九龍觀塘順利邨利溢樓地下29號空格",
        "detail": null,
        "lat": "22.33108",
        "lng": "114.22628",
        "workHrs": null,
        "atm24": true,
        "service": "現金提款\n輪椅通道 (自動櫃員機)"
    },
    {
        "atm_type": "hsbc",
        "bank_type": "匯豐銀行",
        "name": "匯豐銀行 樂華邨理財易中心",
        "area": "九龍",
        "district": "觀塘",
        "address": "九龍牛頭角樂華北邨商場平台空地自動櫃員機一號",
        "detail": null,
        "lat": "22.32183",
        "lng": "114.21983",
        "workHrs": null,
        "atm24": true,
        "service": "現金提款\n輪椅通道 (自動櫃員機)"
    },
    {
        "atm_type": "hsbc",
        "bank_type": "匯豐銀行",
        "name": "匯豐銀行 翠屏邨理財易中心",
        "area": "九龍",
        "district": "觀塘",
        "address": "九龍觀塘翠屏邨翠桃樓76-78號舖",
        "detail": null,
        "lat": "22.31554",
        "lng": "114.22979",
        "workHrs": null,
        "atm24": true,
        "service": "現金提款\n輪椅通道 (自動櫃員機)"
    },
    {
        "atm_type": "hsbc",
        "bank_type": "匯豐銀行",
        "name": "匯豐銀行 物華街理財易中心",
        "area": "九龍",
        "district": "觀塘",
        "address": "九龍觀塘物華街55號安寧大樓地下A號舖",
        "detail": null,
        "lat": "22.31534",
        "lng": "114.22541",
        "workHrs": null,
        "atm24": true,
        "service": "現金提款\n輪椅通道 (自動櫃員機)\n現金存款\n更新存摺簿交易資料\n支票存款"
    },
    {
        "atm_type": "hsbc",
        "bank_type": "匯豐銀行",
        "name": "匯豐銀行 觀塘商業客戶服務中心",
        "area": "九龍",
        "district": "觀塘區",
        "address": "九龍觀塘開源道71號王子大廈3樓(只供工商客戶使用)",
        "detail": null,
        "lat": "22.311071",
        "lng": "114.225224",
        "workHrs": {
            "monday": "09:30 - 17:00",
            "tuesday": "09:30 - 17:00",
            "wednesday": "09:30 - 17:00",
            "thursday": "09:30 - 17:00",
            "friday": "09:30 - 17:00",
            "saturday": "-",
            "sunday": "-"
        },
        "atm24": false,
        "service": "外幣兌換服務\n現金存款\n網上理財服務\n輪椅通道 (分行)\n工商金融服務櫃檯\n支票存款"
    },
    {
        "atm_type": "hsbc",
        "bank_type": "匯豐銀行",
        "name": "匯豐銀行 觀塘理財易中心",
        "area": "九龍",
        "district": "觀塘",
        "address": "九龍觀塘開源道71號王子大廈地下",
        "detail": null,
        "lat": "22.31104",
        "lng": "114.22494",
        "workHrs": null,
        "atm24": true,
        "service": "輪椅通道 (自動櫃員機)\n現金存款\n更新存摺簿交易資料\n支票存款\n現金提款 (港幣及人民幣)"
    },
    {
        "atm_type": "hsbc",
        "bank_type": "匯豐銀行",
        "name": "匯豐銀行 秀茂坪自動櫃員機",
        "area": "九龍",
        "district": "觀塘",
        "address": "九龍觀塘秀茂坪邨秀茂坪商場2樓自動櫃員機2及3號",
        "detail": null,
        "lat": "22.31938",
        "lng": "114.23221",
        "workHrs": {
            "monday": "07:00 - 00:00",
            "tuesday": "07:00 - 00:00",
            "wednesday": "07:00 - 00:00",
            "thursday": "07:00 - 00:00",
            "friday": "07:00 - 00:00",
            "saturday": "07:00 - 00:00",
            "sunday": "07:00 - 00:00"
        },
        "atm24": false,
        "service": "現金提款\n輪椅通道 (自動櫃員機)"
    },
    {
        "atm_type": "hsbc",
        "bank_type": "匯豐銀行",
        "name": "匯豐銀行 創紀之城自動櫃員機",
        "area": "九龍",
        "district": "觀塘",
        "address": "觀塘觀塘道378號創紀之城二期1樓自動提款機3號",
        "detail": null,
        "lat": "22.314485",
        "lng": "114.22024",
        "workHrs": null,
        "atm24": true,
        "service": "現金提款\n現金存款"
    },
    {
        "atm_type": "hsbc",
        "bank_type": "匯豐銀行",
        "name": "匯豐銀行 寶達邨自動櫃員機",
        "area": "九龍",
        "district": "觀塘",
        "address": "九龍觀塘秀茂坪寶達商場地下扶手梯1號及2號梯底(1號舖對面)",
        "detail": null,
        "lat": "22.31743",
        "lng": "114.23625",
        "workHrs": {
            "monday": "06:00 - 23:30",
            "tuesday": "06:00 - 23:30",
            "wednesday": "06:00 - 23:30",
            "thursday": "06:00 - 23:30",
            "friday": "06:00 - 23:30",
            "saturday": "06:00 - 23:30",
            "sunday": "06:00 - 23:30"
        },
        "atm24": false,
        "service": "現金提款"
    },
    {
        "atm_type": "hsbc",
        "bank_type": "匯豐銀行",
        "name": "匯豐銀行 新都城中心理財易中心",
        "area": "新界",
        "district": "西貢",
        "address": "新界將軍澳貿業路8號新都城中心三期商場2樓221-222號舖",
        "detail": null,
        "lat": "22.322173",
        "lng": "114.257511",
        "workHrs": null,
        "atm24": true,
        "service": "現金提款\n輪椅通道 (自動櫃員機)\n現金存款\n更新存摺簿交易資料\n支票存款"
    },
    {
        "atm_type": "hsbc",
        "bank_type": "匯豐銀行",
        "name": "匯豐銀行 翠林邨理財易中心",
        "area": "新界",
        "district": "西貢",
        "address": "新界將軍澳翠林邨翠林商場102號舖",
        "detail": null,
        "lat": "22.32275",
        "lng": "114.2492",
        "workHrs": null,
        "atm24": true,
        "service": "現金提款\n輪椅通道 (自動櫃員機)"
    },
    {
        "atm_type": "hsbc",
        "bank_type": "匯豐銀行",
        "name": "匯豐銀行 寶林邨自動櫃員機",
        "area": "新界",
        "district": "西貢",
        "address": "新界將軍澳寶林邨寶林商場1樓205號舖對面空地",
        "detail": null,
        "lat": "22.32522",
        "lng": "114.25614",
        "workHrs": null,
        "atm24": true,
        "service": "現金提款\n輪椅通道 (自動櫃員機)"
    },
    {
        "atm_type": "hsbc",
        "bank_type": "匯豐銀行",
        "name": "匯豐銀行 景林邨理財易中心",
        "area": "新界",
        "district": "西貢",
        "address": "新界將軍澳景林邨商場地下9號舖",
        "detail": null,
        "lat": "22.32086",
        "lng": "114.26143",
        "workHrs": null,
        "atm24": true,
        "service": "現金提款\n輪椅通道 (自動櫃員機)\n更新存摺簿交易資料"
    },
    {
        "atm_type": "hsbc",
        "bank_type": "匯豐銀行",
        "name": "匯豐銀行 厚德邨自動櫃員機",
        "area": "新界",
        "district": "西貢",
        "address": "新界將軍澳厚德邨厚德商場西翼地下電梯下",
        "detail": null,
        "lat": "22.31728",
        "lng": "114.26421",
        "workHrs": {
            "monday": "06:00 - 23:00",
            "tuesday": "06:00 - 23:00",
            "wednesday": "06:00 - 23:00",
            "thursday": "06:00 - 23:00",
            "friday": "06:00 - 23:00",
            "saturday": "06:00 - 23:00",
            "sunday": "06:00 - 23:00"
        },
        "atm24": false,
        "service": "現金提款\n輪椅通道 (自動櫃員機)"
    },
    {
        "atm_type": "hsbc",
        "bank_type": "匯豐銀行",
        "name": "匯豐銀行 尚德中心理財易中心",
        "area": "新界",
        "district": "西貢",
        "address": "新界將軍澳尚德邨尚德商場3樓302號舖",
        "detail": null,
        "lat": "22.31098",
        "lng": "114.25896",
        "workHrs": {
            "monday": "06:00 - 00:00",
            "tuesday": "06:00 - 00:00",
            "wednesday": "06:00 - 00:00",
            "thursday": "06:00 - 00:00",
            "friday": "06:00 - 00:00",
            "saturday": "06:00 - 00:00",
            "sunday": "06:00 - 00:00"
        },
        "atm24": false,
        "service": "現金提款\n輪椅通道 (自動櫃員機)\n現金存款\n更新存摺簿交易資料"
    },
    {
        "atm_type": "hsbc",
        "bank_type": "匯豐銀行",
        "name": "匯豐銀行 東港城(L2)理財易中心",
        "area": "新界",
        "district": "西貢",
        "address": "新界將軍澳重華路8號東港城商場2樓Area F",
        "detail": null,
        "lat": "22.316597",
        "lng": "114.264931",
        "workHrs": {
            "monday": "07:00 - 23:00",
            "tuesday": "07:00 - 23:00",
            "wednesday": "07:00 - 23:00",
            "thursday": "07:00 - 23:00",
            "friday": "07:00 - 23:00",
            "saturday": "07:00 - 23:00",
            "sunday": "07:00 - 23:00"
        },
        "atm24": false,
        "service": "現金存款\n更新存摺簿交易資料\n支票存款"
    },
    {
        "atm_type": "hsbc",
        "bank_type": "匯豐銀行",
        "name": "匯豐銀行 東港城理財易中心",
        "area": "新界",
        "district": "西貢",
        "address": "新界將軍澳重華路8號東港城108號舖",
        "detail": null,
        "lat": "22.316989",
        "lng": "114.26513",
        "workHrs": {
            "monday": "07:00 - 23:00",
            "tuesday": "07:00 - 23:00",
            "wednesday": "07:00 - 23:00",
            "thursday": "07:00 - 23:00",
            "friday": "07:00 - 23:00",
            "saturday": "07:00 - 23:00",
            "sunday": "07:00 - 23:00"
        },
        "atm24": false,
        "service": "輪椅通道 (自動櫃員機)\n現金提款 (港幣及人民幣)"
    },
    {
        "atm_type": "hsbc",
        "bank_type": "匯豐銀行",
        "name": "匯豐銀行 明德邨自動櫃員機",
        "area": "新界",
        "district": "西貢",
        "address": "新界將軍澳明德邨明德商場地下17號舖對出空地",
        "detail": null,
        "lat": "22.31653",
        "lng": "114.26856",
        "workHrs": null,
        "atm24": true,
        "service": "現金提款\n輪椅通道 (自動櫃員機)"
    },
    {
        "atm_type": "hsbc",
        "bank_type": "匯豐銀行",
        "name": "匯豐銀行 興田邨自動櫃員機",
        "area": "九龍",
        "district": "觀塘",
        "address": "九龍藍田興田邨興田商場地下自動提款機1號",
        "detail": null,
        "lat": "22.31281",
        "lng": "114.23814",
        "workHrs": {
            "monday": "07:00 - 23:00",
            "tuesday": "07:00 - 23:00",
            "wednesday": "07:00 - 23:00",
            "thursday": "07:00 - 23:00",
            "friday": "07:00 - 23:00",
            "saturday": "07:00 - 23:00",
            "sunday": "07:00 - 23:00"
        },
        "atm24": false,
        "service": "現金提款\n輪椅通道 (自動櫃員機)"
    },
    {
        "atm_type": "hsbc",
        "bank_type": "匯豐銀行",
        "name": "匯豐銀行 德田邨自動櫃員機",
        "area": "九龍",
        "district": "觀塘",
        "address": "九龍藍田碧雲道223號德田商場1樓自動提款機1號",
        "detail": null,
        "lat": "22.31015",
        "lng": "114.23807",
        "workHrs": {
            "monday": "05:00 - 00:00",
            "tuesday": "05:00 - 00:00",
            "wednesday": "05:00 - 00:00",
            "thursday": "05:00 - 00:00",
            "friday": "05:00 - 00:00",
            "saturday": "05:00 - 00:00",
            "sunday": "05:00 - 00:00"
        },
        "atm24": false,
        "service": "現金提款\n輪椅通道 (自動櫃員機)"
    },
    {
        "atm_type": "hsbc",
        "bank_type": "匯豐銀行",
        "name": "匯豐銀行 西貢分行",
        "area": "新界",
        "district": "西貢區",
        "address": "新界西貢親民街西貢花園9-10號舖",
        "detail": null,
        "lat": "22.382291",
        "lng": "114.271256",
        "workHrs": {
            "monday": "09:00 - 16:30",
            "tuesday": "09:00 - 16:30",
            "wednesday": "09:00 - 16:30",
            "thursday": "09:00 - 16:30",
            "friday": "09:00 - 17:00",
            "saturday": "09:00 - 13:00",
            "sunday": "-"
        },
        "atm24": true,
        "service": "現金提款\n外幣兌換服務\n匯豐卓越理財服務櫃檯\n現金存款\n網上理財服務\n更新存摺簿交易資料\n匯豐運籌理財服務櫃檯"
    },
    {
        "atm_type": "hsbc",
        "bank_type": "匯豐銀行",
        "name": "匯豐銀行 信德理財易中心",
        "area": "香港島",
        "district": "中西區",
        "address": "香港干諾道中168-200號信德中心2樓294-295號舖",
        "detail": null,
        "lat": "22.28812",
        "lng": "114.15109",
        "workHrs": null,
        "atm24": true,
        "service": "現金提款\n輪椅通道 (自動櫃員機)\n現金存款\n更新存摺簿交易資料\n支票存款\n現金提款 (港幣及人民幣)"
    },
    {
        "atm_type": "hsbc",
        "bank_type": "匯豐銀行",
        "name": "匯豐銀行 摩根士丹利亞洲有限公司自動櫃員機",
        "area": "九龍",
        "district": "油尖旺",
        "address": "九龍柯士甸道西1號環球貿易廣場 47 樓",
        "detail": null,
        "lat": "22.30339",
        "lng": "114.16027",
        "workHrs": null,
        "atm24": true,
        "service": "現金提款\n輪椅通道 (自動櫃員機)"
    },
    {
        "atm_type": "hsbc",
        "bank_type": "匯豐銀行",
        "name": "匯豐銀行 德意志銀行(香港分行)自動櫃員機",
        "area": "九龍",
        "district": "油尖旺",
        "address": "香港九龍柯士甸道西1號環球貿易廣場56樓",
        "detail": null,
        "lat": "22.30354",
        "lng": "114.160287",
        "workHrs": null,
        "atm24": true,
        "service": "現金提款\n輪椅通道 (自動櫃員機)"
    },
    {
        "atm_type": "hsbc",
        "bank_type": "匯豐銀行",
        "name": "匯豐銀行 德輔道西分行",
        "area": "香港",
        "district": "中西區",
        "address": "香港上環德輔道西40-50號西區中心大廈",
        "detail": null,
        "lat": "22.287512",
        "lng": "114.146933",
        "workHrs": {
            "monday": "09:00 - 16:30",
            "tuesday": "09:00 - 16:30",
            "wednesday": "09:00 - 16:30",
            "thursday": "09:00 - 16:30",
            "friday": "09:00 - 17:00",
            "saturday": "09:00 - 13:00",
            "sunday": "-"
        },
        "atm24": false,
        "service": "現金提款\n外幣兌換服務\n網上理財服務\n保險箱服務\n更新存摺簿交易資料\n匯豐運籌理財服務櫃檯\n支票存款"
    },
    {
        "atm_type": "hsbc",
        "bank_type": "匯豐銀行",
        "name": "匯豐銀行 圓方理財易中心",
        "area": "九龍",
        "district": "油尖旺",
        "address": "九龍尖沙咀柯士甸道西一號圓方一樓一號提款機",
        "detail": null,
        "lat": "22.30423",
        "lng": "114.16103",
        "workHrs": null,
        "atm24": true,
        "service": "輪椅通道 (自動櫃員機)\n現金提款 (港幣及人民幣)"
    },
    {
        "atm_type": "hsbc",
        "bank_type": "匯豐銀行",
        "name": "匯豐銀行 港鐵柯士甸站理財易中心",
        "area": "九龍",
        "district": "油尖旺",
        "address": "港鐵柯士甸站(收費區外) AUS 102 號舖",
        "detail": null,
        "lat": "22.304919",
        "lng": "114.16621",
        "workHrs": {
            "monday": "06:00 - 01:00",
            "tuesday": "06:00 - 01:00",
            "wednesday": "06:00 - 01:00",
            "thursday": "06:00 - 01:00",
            "friday": "06:00 - 01:00",
            "saturday": "06:00 - 01:00",
            "sunday": "06:00 - 01:00"
        },
        "atm24": false,
        "service": "現金提款\n輪椅通道 (自動櫃員機)"
    },
    {
        "atm_type": "hsbc",
        "bank_type": "匯豐銀行",
        "name": "匯豐銀行 東海中心理財易中心",
        "area": "九龍",
        "district": "油尖旺",
        "address": "九龍尖沙咀加連威老道98號東海商業中心地下G18A號舖",
        "detail": null,
        "lat": "22.300061",
        "lng": "114.177547",
        "workHrs": {
            "monday": "07:30 - 23:00",
            "tuesday": "07:30 - 23:00",
            "wednesday": "07:30 - 23:00",
            "thursday": "07:30 - 23:00",
            "friday": "07:30 - 23:00",
            "saturday": "07:30 - 23:00",
            "sunday": "07:30 - 23:00"
        },
        "atm24": false,
        "service": "輪椅通道 (自動櫃員機)\n現金存款\n更新存摺簿交易資料\n支票存款\n現金提款 (港幣及人民幣)"
    },
    {
        "atm_type": "hsbc",
        "bank_type": "匯豐銀行",
        "name": "匯豐銀行 彌敦道238號理財易中心",
        "area": "九龍",
        "district": "油尖旺",
        "address": "九龍油麻地彌敦道238號地下8號舖",
        "detail": null,
        "lat": "22.304942",
        "lng": "114.171934",
        "workHrs": {
            "monday": "07:00 - 23:00",
            "tuesday": "07:00 - 23:00",
            "wednesday": "07:00 - 23:00",
            "thursday": "07:00 - 23:00",
            "friday": "07:00 - 23:00",
            "saturday": "07:00 - 23:00",
            "sunday": "07:00 - 23:00"
        },
        "atm24": false,
        "service": "輪椅通道 (自動櫃員機)\n現金存款\n更新存摺簿交易資料\n支票存款\n現金提款 (港幣及人民幣)"
    },
    {
        "atm_type": "hsbc",
        "bank_type": "匯豐銀行",
        "name": "匯豐銀行 半島中心分行",
        "area": "九龍",
        "district": "油尖旺區",
        "address": "九龍尖沙咀麼地道 67號半島中心地下G55-60號",
        "detail": null,
        "lat": "22.298852",
        "lng": "114.17692",
        "workHrs": {
            "monday": "09:00 - 16:30",
            "tuesday": "09:00 - 16:30",
            "wednesday": "09:00 - 16:30",
            "thursday": "09:00 - 16:30",
            "friday": "09:00 - 17:00",
            "saturday": "09:00 - 13:00",
            "sunday": "-"
        },
        "atm24": false,
        "service": "外幣兌換服務\n匯豐卓越理財服務櫃檯\n網上理財服務\n匯豐運籌理財服務櫃檯\n工商金融服務櫃檯"
    },
    {
        "atm_type": "hsbc",
        "bank_type": "匯豐銀行",
        "name": "匯豐銀行 半島中心理財易中心",
        "area": "九龍",
        "district": "油尖旺",
        "address": "九龍尖東麼地道67號半島中心地下及一樓G55-60號",
        "detail": null,
        "lat": "22.298934",
        "lng": "114.177078",
        "workHrs": null,
        "atm24": true,
        "service": "現金存款\n更新存摺簿交易資料\n支票存款\n現金提款 (港幣及人民幣)"
    },
    {
        "atm_type": "hsbc",
        "bank_type": "匯豐銀行",
        "name": "匯豐銀行 港鐵紅磡站自動櫃員機",
        "area": "九龍",
        "district": "油尖旺",
        "address": "九龍紅磡港鐵紅磡站收費區外自動櫃員機 HUH ATM 3",
        "detail": null,
        "lat": "22.302944",
        "lng": "114.181986",
        "workHrs": {
            "monday": "06:00 - 00:00",
            "tuesday": "06:00 - 00:00",
            "wednesday": "06:00 - 00:00",
            "thursday": "06:00 - 00:00",
            "friday": "06:00 - 00:00",
            "saturday": "06:00 - 00:00",
            "sunday": "06:00 - 00:00"
        },
        "atm24": false,
        "service": "輪椅通道 (自動櫃員機)\n現金存款\n現金提款 (港幣及人民幣)"
    },
    {
        "atm_type": "hsbc",
        "bank_type": "匯豐銀行",
        "name": "匯豐銀行 尖沙咀商業客戶服務中心",
        "area": "九龍",
        "district": "油尖旺區",
        "address": "尖沙咀彌敦道82-84號 地下",
        "detail": null,
        "lat": "22.298845",
        "lng": "114.172325",
        "workHrs": {
            "monday": "09:00 - 16:30",
            "tuesday": "09:00 - 16:30",
            "wednesday": "09:00 - 16:30",
            "thursday": "09:00 - 16:30",
            "friday": "09:00 - 17:00",
            "saturday": "09:00 - 13:00",
            "sunday": "-"
        },
        "atm24": false,
        "service": "外幣兌換服務\n輪椅通道 (分行)\n工商金融服務櫃檯"
    },
    {
        "atm_type": "hsbc",
        "bank_type": "匯豐銀行",
        "name": "匯豐銀行 尖沙咀理財易中心",
        "area": "九龍",
        "district": "油尖旺",
        "address": "九龍尖沙咀彌敦道82-84 號",
        "detail": null,
        "lat": "22.298835",
        "lng": "114.172457",
        "workHrs": null,
        "atm24": true,
        "service": "輪椅通道 (自動櫃員機)\n現金存款\n更新存摺簿交易資料\n支票存款\n現金提款 (港幣及人民幣)"
    },
    {
        "atm_type": "hsbc",
        "bank_type": "匯豐銀行",
        "name": "匯豐銀行 寶靈街 (7-Eleven) 自動櫃員機",
        "area": "九龍",
        "district": "油尖旺",
        "address": "九龍佐敦寳靈街48-50號地下 7-Eleven便利店",
        "detail": null,
        "lat": "22.30405",
        "lng": "114.16899",
        "workHrs": null,
        "atm24": true,
        "service": "現金提款"
    },
    {
        "atm_type": "hsbc",
        "bank_type": "匯豐銀行",
        "name": "匯豐銀行 中港城理財易中心",
        "area": "九龍",
        "district": "油尖旺",
        "address": "九龍尖沙咀中港城2樓11號舖",
        "detail": null,
        "lat": "22.30041",
        "lng": "114.16788",
        "workHrs": null,
        "atm24": true,
        "service": "輪椅通道 (自動櫃員機)\n支票存款\n現金提款 (港幣及人民幣)"
    },
    {
        "atm_type": "hsbc",
        "bank_type": "匯豐銀行",
        "name": "匯豐銀行 港威大廈理財易中心",
        "area": "九龍",
        "district": "油尖旺",
        "address": "九龍尖沙咀海港城港威商場三階K2號舖",
        "detail": null,
        "lat": "22.29948",
        "lng": "114.16794",
        "workHrs": {
            "monday": "07:00 - 00:00",
            "tuesday": "07:00 - 00:00",
            "wednesday": "07:00 - 00:00",
            "thursday": "07:00 - 00:00",
            "friday": "07:00 - 00:00",
            "saturday": "07:00 - 00:00",
            "sunday": "07:00 - 00:00"
        },
        "atm24": false,
        "service": "輪椅通道 (自動櫃員機)\n現金提款 (港幣及人民幣)"
    },
    {
        "atm_type": "hsbc",
        "bank_type": "匯豐銀行",
        "name": "匯豐銀行 黃埔花園分行",
        "area": "九龍",
        "district": "九龍城區",
        "address": "九龍紅磡黃埔花園第4期商場地下G6及6A號舖",
        "detail": null,
        "lat": "22.303624",
        "lng": "114.189021",
        "workHrs": {
            "monday": "09:00 - 16:30",
            "tuesday": "09:00 - 16:30",
            "wednesday": "09:00 - 16:30",
            "thursday": "09:00 - 16:30",
            "friday": "09:00 - 17:00",
            "saturday": "09:00 - 13:00",
            "sunday": "-"
        },
        "atm24": true,
        "service": "現金提款\n外幣兌換服務\n現金存款\n網上理財服務\n輪椅通道 (分行)\n更新存摺簿交易資料\n匯豐運籌理財服務櫃檯\n支票存款"
    },
    {
        "atm_type": "hsbc",
        "bank_type": "匯豐銀行",
        "name": "匯豐銀行 中電控股有限公司自動櫃員機",
        "area": "九龍",
        "district": "油尖旺",
        "address": "九龍紅磡海逸道8號海逸坊1樓",
        "detail": null,
        "lat": "22.309054",
        "lng": "114.191197",
        "workHrs": {
            "monday": "07:00 - 19:03",
            "tuesday": "07:00 - 19:03",
            "wednesday": "07:00 - 19:03",
            "thursday": "07:00 - 19:03",
            "friday": "07:00 - 19:03",
            "saturday": "07:00 - 19:03",
            "sunday": "07:00 - 19:03"
        },
        "atm24": false,
        "service": "現金提款\n現金存款"
    },
    {
        "atm_type": "hsbc",
        "bank_type": "匯豐銀行",
        "name": "匯豐銀行 黃埔新村 (7-Eleven) 自動櫃員機",
        "area": "九龍",
        "district": "九龍城",
        "address": "九龍紅磡黃埔新村民泰街2-32 永華樓地下B2A-B 7-Eleven便利店",
        "detail": null,
        "lat": "22.306283",
        "lng": "114.187905",
        "workHrs": null,
        "atm24": true,
        "service": "現金提款"
    },
    {
        "atm_type": "hsbc",
        "bank_type": "匯豐銀行",
        "name": "匯豐銀行 紅磡灣中心理財易中心",
        "area": "九龍",
        "district": "九龍城",
        "address": "九龍紅磡必嘉街紅磡灣中心商場14號舖",
        "detail": null,
        "lat": "22.305505",
        "lng": "114.186257",
        "workHrs": null,
        "atm24": true,
        "service": "現金提款\n輪椅通道 (自動櫃員機)\n現金存款\n更新存摺簿交易資料\n支票存款"
    },
    {
        "atm_type": "hsbc",
        "bank_type": "匯豐銀行",
        "name": "匯豐銀行 港鐵尖東站(S14)理財易中心",
        "area": "九龍",
        "district": "油尖旺",
        "address": "九龍尖沙咀港鐵尖東站收費區外14號舖",
        "detail": null,
        "lat": "22.29549",
        "lng": "114.17359",
        "workHrs": {
            "monday": "05:15 - 01:30",
            "tuesday": "05:15 - 01:30",
            "wednesday": "05:15 - 01:30",
            "thursday": "05:15 - 01:30",
            "friday": "05:15 - 01:30",
            "saturday": "05:15 - 01:30",
            "sunday": "05:15 - 01:30"
        },
        "atm24": false,
        "service": "輪椅通道 (自動櫃員機)\n現金存款\n現金提款 (港幣及人民幣)"
    },
    {
        "atm_type": "hsbc",
        "bank_type": "匯豐銀行",
        "name": "匯豐銀行 九龍理財易中心",
        "area": "九龍",
        "district": "油尖旺",
        "address": "九龍尖沙咀彌敦道21號九龍酒店1樓",
        "detail": null,
        "lat": "22.2959",
        "lng": "114.17215",
        "workHrs": {
            "monday": "07:00 - 22:00",
            "tuesday": "07:00 - 22:00",
            "wednesday": "07:00 - 22:00",
            "thursday": "07:00 - 22:00",
            "friday": "07:00 - 22:00",
            "saturday": "07:00 - 22:00",
            "sunday": "07:00 - 22:00"
        },
        "atm24": false,
        "service": "現金提款 (港幣及人民幣)"
    },
    {
        "atm_type": "hsbc",
        "bank_type": "匯豐銀行",
        "name": "匯豐銀行 九龍天星碼頭理財易中心",
        "area": "九龍",
        "district": "油尖旺",
        "address": "九龍 尖沙咀 天星碼頭 地下５號舖",
        "detail": null,
        "lat": "22.293832",
        "lng": "114.168742",
        "workHrs": null,
        "atm24": true,
        "service": "輪椅通道 (自動櫃員機)\n現金提款 (港幣及人民幣)"
    },
    {
        "atm_type": "hsbc",
        "bank_type": "匯豐銀行",
        "name": "匯豐銀行 海防道商業客戶服務中心",
        "area": "九龍",
        "district": "油尖旺區",
        "address": "九龍尖沙咀海防道38-40號 中達大廈2樓 (只供工商客戶使用)",
        "detail": null,
        "lat": "22.297936",
        "lng": "114.170759",
        "workHrs": {
            "monday": "09:30 - 17:00",
            "tuesday": "09:30 - 17:00",
            "wednesday": "09:30 - 17:00",
            "thursday": "09:30 - 17:00",
            "friday": "09:30 - 17:00",
            "saturday": "-",
            "sunday": "-"
        },
        "atm24": false,
        "service": "現金提款\n外幣兌換服務\n現金存款\n網上理財服務\n輪椅通道 (分行)\n更新存摺簿交易資料\n工商金融服務櫃檯\n支票存款"
    },
    {
        "atm_type": "hsbc",
        "bank_type": "匯豐銀行",
        "name": "匯豐銀行 海洋中心理財易中心",
        "area": "九龍",
        "district": "油尖旺",
        "address": "九龍尖沙咀海港城海洋中心三階K3",
        "detail": null,
        "lat": "22.29605",
        "lng": "114.16905",
        "workHrs": {
            "monday": "07:00 - 00:00",
            "tuesday": "07:00 - 00:00",
            "wednesday": "07:00 - 00:00",
            "thursday": "07:00 - 00:00",
            "friday": "07:00 - 00:00",
            "saturday": "07:00 - 00:00",
            "sunday": "07:00 - 00:00"
        },
        "atm24": false,
        "service": "輪椅通道 (自動櫃員機)\n現金存款\n更新存摺簿交易資料\n支票存款\n現金提款 (港幣及人民幣)"
    },
    {
        "atm_type": "hsbc",
        "bank_type": "匯豐銀行",
        "name": "匯豐銀行 北角理財易中心",
        "area": "香港島",
        "district": "東區",
        "address": "香港北角英皇道306-316號雲華大廈",
        "detail": null,
        "lat": "22.289982",
        "lng": "114.195963",
        "workHrs": null,
        "atm24": true,
        "service": "現金存款\n更新存摺簿交易資料\n支票存款\n現金提款 (港幣及人民幣)"
    },
    {
        "atm_type": "hsbc",
        "bank_type": "匯豐銀行",
        "name": "匯豐銀行 港運城理財易中心",
        "area": "香港島",
        "district": "東區",
        "address": "香港北角英皇道500號港運城131-132號",
        "detail": null,
        "lat": "22.290928",
        "lng": "114.201968",
        "workHrs": null,
        "atm24": true,
        "service": "輪椅通道 (自動櫃員機)\n現金存款\n更新存摺簿交易資料\n支票存款\n現金提款 (港幣及人民幣)"
    },
    {
        "atm_type": "hsbc",
        "bank_type": "匯豐銀行",
        "name": "匯豐銀行 般含道理財易中心",
        "area": "香港島",
        "district": "中西區",
        "address": "香港西營盤般含道68號蔚庭軒",
        "detail": null,
        "lat": "22.284301",
        "lng": "114.142778",
        "workHrs": null,
        "atm24": true,
        "service": "現金提款\n輪椅通道 (自動櫃員機)\n現金存款\n更新存摺簿交易資料\n支票存款"
    },
    {
        "atm_type": "hsbc",
        "bank_type": "匯豐銀行",
        "name": "匯豐銀行 香港大學分行",
        "area": "香港",
        "district": "中西區",
        "address": "香港西營盤薄扶林道香港大學邵仁枚樓",
        "detail": null,
        "lat": "22.282452",
        "lng": "114.1387",
        "workHrs": {
            "monday": "09:00 - 16:30",
            "tuesday": "09:00 - 16:30",
            "wednesday": "09:00 - 16:30",
            "thursday": "09:00 - 16:30",
            "friday": "09:00 - 17:00",
            "saturday": "09:00 - 13:00",
            "sunday": "-"
        },
        "atm24": false,
        "service": "現金提款\n外幣兌換服務\n輪椅通道 (自動櫃員機)\n匯豐卓越理財服務櫃檯\n網上理財服務\n輪椅通道 (分行)\n更新存摺簿交易資料"
    },
    {
        "atm_type": "hsbc",
        "bank_type": "匯豐銀行",
        "name": "匯豐銀行 288皇后大道西理財易中心",
        "area": "香港島",
        "district": "中西區",
        "address": "香港皇后大道西 288 號 豐景閣地下1 及 2 號舖",
        "detail": null,
        "lat": "22.2868",
        "lng": "114.14254",
        "workHrs": null,
        "atm24": true,
        "service": "現金提款\n輪椅通道 (自動櫃員機)\n現金存款\n更新存摺簿交易資料\n支票存款"
    },
    {
        "atm_type": "hsbc",
        "bank_type": "匯豐銀行",
        "name": "匯豐銀行 港鐵香港大學站理財易中心",
        "area": "香港島",
        "district": "中西區",
        "address": "香港大學站HKU 6號舖",
        "detail": null,
        "lat": "22.283974",
        "lng": "114.135574",
        "workHrs": {
            "monday": "05:51 - 01:20",
            "tuesday": "05:51 - 01:20",
            "wednesday": "05:51 - 01:20",
            "thursday": "05:51 - 01:20",
            "friday": "05:51 - 01:20",
            "saturday": "05:51 - 01:20",
            "sunday": "05:51 - 01:20"
        },
        "atm24": false,
        "service": "現金提款\n輪椅通道 (自動櫃員機)\n現金存款\n更新存摺簿交易資料\n支票存款"
    },
    {
        "atm_type": "hsbc",
        "bank_type": "匯豐銀行",
        "name": "匯豐銀行 皇后大道西2號理財易中心",
        "area": "香港島",
        "district": "中西區",
        "address": "香港皇后大道西2-12號聯發商場A舖",
        "detail": null,
        "lat": "22.2864",
        "lng": "114.14829",
        "workHrs": null,
        "atm24": true,
        "service": "現金提款\n輪椅通道 (自動櫃員機)\n現金存款\n更新存摺簿交易資料\n支票存款"
    },
    {
        "atm_type": "hsbc",
        "bank_type": "匯豐銀行",
        "name": "匯豐銀行 香港總行商業客戶服務中心",
        "area": "香港",
        "district": "中西區",
        "address": "香港中環皇后大道中 1 號地庫",
        "detail": null,
        "lat": "22.280725",
        "lng": "114.159373",
        "workHrs": {
            "monday": "09:00 - 16:30",
            "tuesday": "09:00 - 16:30",
            "wednesday": "09:00 - 16:30",
            "thursday": "09:00 - 16:30",
            "friday": "09:00 - 17:00",
            "saturday": "09:00 - 13:00",
            "sunday": "-"
        },
        "atm24": false,
        "service": "現金提款\n外幣兌換服務\n現金存款\n更新存摺簿交易資料\n工商金融服務櫃檯\n支票存款"
    },
    {
        "atm_type": "hsbc",
        "bank_type": "匯豐銀行",
        "name": "匯豐銀行 香港總行",
        "area": "香港",
        "district": "中西區",
        "address": "香港中環皇后大道中1號3樓及地庫",
        "detail": null,
        "lat": "22.28037",
        "lng": "114.15959",
        "workHrs": {
            "monday": "09:00 - 16:30",
            "tuesday": "09:00 - 16:30",
            "wednesday": "09:00 - 16:30",
            "thursday": "09:00 - 16:30",
            "friday": "09:00 - 17:00",
            "saturday": "09:00 - 13:00",
            "sunday": "-"
        },
        "atm24": false,
        "service": "現金提款\n外幣兌換服務\n輪椅通道 (自動櫃員機)\n現金存款\n網上理財服務\n輪椅通道 (分行)\n禮券銷售\n保險箱服務\n更新存摺簿交易資料\n匯豐運籌理財服務櫃檯\n工商金融服務櫃檯\n支票存款"
    },
    {
        "atm_type": "hsbc",
        "bank_type": "匯豐銀行",
        "name": "匯豐銀行 滙豐總行大廈理財易中心",
        "area": "香港島",
        "district": "中西區",
        "address": "香港皇后大道中1號滙豐總行大廈地面廣場",
        "detail": null,
        "lat": "22.28021",
        "lng": "114.1597",
        "workHrs": null,
        "atm24": true,
        "service": "輪椅通道 (自動櫃員機)\n現金存款\n外幣現金提款\n支票存款\n現金提款 (港幣及人民幣)"
    },
    {
        "atm_type": "hsbc",
        "bank_type": "匯豐銀行",
        "name": "匯豐銀行 交易廣場理財易中心",
        "area": "香港島",
        "district": "中西區",
        "address": "香港中環交易廣場1樓101號舖",
        "detail": null,
        "lat": "22.283356",
        "lng": "114.158413",
        "workHrs": null,
        "atm24": true,
        "service": "現金提款\n輪椅通道 (自動櫃員機)\n現金存款\n外幣現金提款\n更新存摺簿交易資料\n支票存款"
    },
    {
        "atm_type": "hsbc",
        "bank_type": "匯豐銀行",
        "name": "匯豐銀行 中環理財易中心",
        "area": "香港島",
        "district": "中西區",
        "address": "香港中環皇后大道中29號地下",
        "detail": null,
        "lat": "22.281658",
        "lng": "114.156935",
        "workHrs": null,
        "atm24": true,
        "service": "現金存款\n更新存摺簿交易資料\n支票存款\n現金提款 (港幣及人民幣)"
    },
    {
        "atm_type": "hsbc",
        "bank_type": "匯豐銀行",
        "name": "匯豐銀行 國際金融中心商場自動櫃員機",
        "area": "香港島",
        "district": "中西區",
        "address": "中環金融街八號國際金融中心商場一樓1105A-C號舖",
        "detail": null,
        "lat": "22.28478",
        "lng": "114.1594",
        "workHrs": null,
        "atm24": true,
        "service": "輪椅通道 (自動櫃員機)\n現金提款 (港幣及人民幣)"
    },
    {
        "atm_type": "hsbc",
        "bank_type": "匯豐銀行",
        "name": "匯豐銀行 夏慤道理財易中心",
        "area": "香港島",
        "district": "中西區",
        "address": "香港中環夏慤道10號和記大廈地下",
        "detail": null,
        "lat": "22.281125",
        "lng": "114.16259",
        "workHrs": null,
        "atm24": true,
        "service": "現金存款\n更新存摺簿交易資料\n支票存款\n現金提款 (港幣及人民幣)"
    },
    {
        "atm_type": "hsbc",
        "bank_type": "匯豐銀行",
        "name": "匯豐銀行 德己立街 (7-Eleven) 自動櫃員機",
        "area": "香港島",
        "district": "中西區",
        "address": "香港中環德己立街41號地下7號鋪",
        "detail": null,
        "lat": "22.280695",
        "lng": "114.155095",
        "workHrs": null,
        "atm24": true,
        "service": "現金提款"
    },
    {
        "atm_type": "hsbc",
        "bank_type": "匯豐銀行",
        "name": "匯豐銀行 擺花街理財易中心",
        "area": "香港島",
        "district": "中西區",
        "address": "香港中環擺花街23-39號中環大廈地下E舖",
        "detail": null,
        "lat": "22.282662",
        "lng": "114.153695",
        "workHrs": null,
        "atm24": true,
        "service": "輪椅通道 (自動櫃員機)\n現金存款\n更新存摺簿交易資料\n支票存款\n現金提款 (港幣及人民幣)"
    },
    {
        "atm_type": "hsbc",
        "bank_type": "匯豐銀行",
        "name": "匯豐銀行 堅道27號(7-Eleven) 自動櫃員機",
        "area": "香港島",
        "district": "中西區",
        "address": "香港中環堅道27號地下7-Eleven便利店",
        "detail": null,
        "lat": "22.28033",
        "lng": "114.15384",
        "workHrs": null,
        "atm24": true,
        "service": "現金提款"
    },
    {
        "atm_type": "hsbc",
        "bank_type": "匯豐銀行",
        "name": "匯豐銀行 128 皇后大道中分行",
        "area": "香港",
        "district": "中西區",
        "address": "香港中環皇后大道中128-40號威享大廈",
        "detail": null,
        "lat": "22.284024",
        "lng": "114.154214",
        "workHrs": {
            "monday": "09:00 - 16:30",
            "tuesday": "09:00 - 16:30",
            "wednesday": "09:00 - 16:30",
            "thursday": "09:00 - 16:30",
            "friday": "09:00 - 17:00",
            "saturday": "09:00 - 13:00",
            "sunday": "-"
        },
        "atm24": true,
        "service": "現金提款\n外幣兌換服務\n輪椅通道 (自動櫃員機)\n現金存款\n網上理財服務\n輪椅通道 (分行)\n保險箱服務\n更新存摺簿交易資料\n匯豐運籌理財服務櫃檯\n支票存款"
    },
    {
        "atm_type": "hsbc",
        "bank_type": "匯豐銀行",
        "name": "匯豐銀行 德輔道中分行",
        "area": "香港",
        "district": "中西區",
        "address": "香港上環德輔道中141號中保集團大廈",
        "detail": null,
        "lat": "22.285456",
        "lng": "114.155043",
        "workHrs": {
            "monday": "09:00 - 16:30",
            "tuesday": "09:00 - 16:30",
            "wednesday": "09:00 - 16:30",
            "thursday": "09:00 - 16:30",
            "friday": "09:00 - 17:00",
            "saturday": "09:00 - 13:00",
            "sunday": "-"
        },
        "atm24": true,
        "service": "現金提款\n外幣兌換服務\n現金存款\n網上理財服務\n更新存摺簿交易資料\n匯豐運籌理財服務櫃檯"
    },
    {
        "atm_type": "hsbc",
        "bank_type": "匯豐銀行",
        "name": "匯豐銀行 中環天星碼頭自動櫃員機",
        "area": "香港島",
        "district": "中西區",
        "address": "香港中環7號碼頭(天星小輪)上層一號提款機",
        "detail": null,
        "lat": "22.28694",
        "lng": "114.16108",
        "workHrs": null,
        "atm24": true,
        "service": "輪椅通道 (自動櫃員機)\n現金提款 (港幣及人民幣)"
    },
    {
        "atm_type": "hsbc",
        "bank_type": "匯豐銀行",
        "name": "匯豐銀行 太古廣場 L4 理財易中心",
        "area": "香港島",
        "district": "中西區",
        "address": "香港金鐘道88號太古廣場商場403號舖",
        "detail": null,
        "lat": "22.277746",
        "lng": "114.165126",
        "workHrs": null,
        "atm24": true,
        "service": "輪椅通道 (自動櫃員機)\n現金提款 (港幣及人民幣)"
    },
    {
        "atm_type": "hsbc",
        "bank_type": "匯豐銀行",
        "name": "匯豐銀行 太古廣場理財易中心",
        "area": "香港島",
        "district": "中西區",
        "address": "香港金鐘道88號太古廣場商場102號舖",
        "detail": null,
        "lat": "22.277746",
        "lng": "114.165372",
        "workHrs": null,
        "atm24": true,
        "service": "現金提款\n輪椅通道 (自動櫃員機)\n現金存款\n更新存摺簿交易資料\n支票存款\n現金提款 (港幣及人民幣)"
    },
    {
        "atm_type": "hsbc",
        "bank_type": "匯豐銀行",
        "name": "匯豐銀行 文咸東街商業客戶服務中心",
        "area": "香港",
        "district": "中西區",
        "address": "香港上環文咸東街35-45號(只供工商客戶使用)",
        "detail": null,
        "lat": "22.285582",
        "lng": "114.152386",
        "workHrs": {
            "monday": "09:30 - 17:00",
            "tuesday": "09:30 - 17:00",
            "wednesday": "09:30 - 17:00",
            "thursday": "09:30 - 17:00",
            "friday": "09:30 - 17:00",
            "saturday": "-",
            "sunday": "-"
        },
        "atm24": false,
        "service": "現金提款\n外幣兌換服務\n現金存款\n網上理財服務\n工商金融服務櫃檯\n支票存款"
    },
    {
        "atm_type": "hsbc",
        "bank_type": "匯豐銀行",
        "name": "匯豐銀行 西摩道 (7-Eleven) 自動櫃員機",
        "area": "香港島",
        "district": "中西區",
        "address": "香港西摩道1號地下7號舖7-Eleven便利店",
        "detail": null,
        "lat": "22.28017",
        "lng": "114.15077",
        "workHrs": null,
        "atm24": true,
        "service": "現金提款"
    },
    {
        "atm_type": "hsbc",
        "bank_type": "匯豐銀行",
        "name": "匯豐銀行 上環理財易中心",
        "area": "香港島",
        "district": "中西區",
        "address": "香港上環德輔道中293-301號 粵海投資大廈地下A舖",
        "detail": null,
        "lat": "22.287037",
        "lng": "114.15115",
        "workHrs": null,
        "atm24": true,
        "service": "現金提款\n輪椅通道 (自動櫃員機)\n現金存款\n更新存摺簿交易資料\n支票存款"
    },
    {
        "atm_type": "hsbc",
        "bank_type": "匯豐銀行",
        "name": "匯豐銀行 山頂廣場自動櫃員機",
        "area": "香港島",
        "district": "中西區",
        "address": "香港山頂道118號山頂廣場1樓",
        "detail": null,
        "lat": "22.27055",
        "lng": "114.14975",
        "workHrs": {
            "monday": "10:00 - 22:00",
            "tuesday": "10:00 - 22:00",
            "wednesday": "10:00 - 22:00",
            "thursday": "10:00 - 22:00",
            "friday": "10:00 - 22:00",
            "saturday": "10:00 - 22:00",
            "sunday": "10:00 - 22:00"
        },
        "atm24": false,
        "service": "現金提款\n輪椅通道 (自動櫃員機)\n現金存款"
    },
    {
        "atm_type": "hsbc",
        "bank_type": "匯豐銀行",
        "name": "匯豐銀行 新鴻基中心理財易中心",
        "area": "香港島",
        "district": "灣仔",
        "address": "香港灣仔港灣道30號新鴻基中心1樓115-117, 127-133舖",
        "detail": null,
        "lat": "22.280245",
        "lng": "114.176929",
        "workHrs": null,
        "atm24": true,
        "service": "輪椅通道 (自動櫃員機)\n現金存款\n更新存摺簿交易資料\n支票存款\n現金提款 (港幣及人民幣)"
    },
    {
        "atm_type": "hsbc",
        "bank_type": "匯豐銀行",
        "name": "匯豐銀行 會展廣場理財易中心",
        "area": "香港島",
        "district": "灣仔",
        "address": "香港灣仔港灣道1號會展廣場102A室",
        "detail": null,
        "lat": "22.28093",
        "lng": "114.17378",
        "workHrs": null,
        "atm24": true,
        "service": "輪椅通道 (自動櫃員機)\n現金存款\n支票存款\n現金提款 (港幣及人民幣)"
    },
    {
        "atm_type": "hsbc",
        "bank_type": "匯豐銀行",
        "name": "匯豐銀行 256 軒尼詩道理財易中心",
        "area": "香港島",
        "district": "灣仔",
        "address": "香港灣仔軒尼詩道256號地下1號舖",
        "detail": null,
        "lat": "22.2777",
        "lng": "114.17611",
        "workHrs": null,
        "atm24": true,
        "service": "現金提款\n輪椅通道 (自動櫃員機)\n現金存款\n禮券銷售\n更新存摺簿交易資料\n支票存款"
    },
    {
        "atm_type": "hsbc",
        "bank_type": "匯豐銀行",
        "name": "匯豐銀行 駱克道382號(7-Eleven) 自動櫃員機",
        "area": "香港島",
        "district": "灣仔",
        "address": "香港灣仔駱克道382號莊士企業大廈地下7-Eleven便利店",
        "detail": null,
        "lat": "22.27931",
        "lng": "114.17979",
        "workHrs": null,
        "atm24": true,
        "service": "現金提款"
    },
    {
        "atm_type": "hsbc",
        "bank_type": "匯豐銀行",
        "name": "匯豐銀行 灣仔商業客戶服務中心",
        "area": "香港",
        "district": "灣仔區",
        "address": "香港灣仔軒尼詩道288號英皇集團中心1樓110-120號舖(只供工商客戶使用)",
        "detail": null,
        "lat": "22.277518",
        "lng": "114.176837",
        "workHrs": {
            "monday": "09:30 - 17:00",
            "tuesday": "09:30 - 17:00",
            "wednesday": "09:30 - 17:00",
            "thursday": "09:30 - 17:00",
            "friday": "09:30 - 17:00",
            "saturday": "-",
            "sunday": "-"
        },
        "atm24": true,
        "service": "現金提款\n外幣兌換服務\n輪椅通道 (自動櫃員機)\n現金存款\n網上理財服務\n輪椅通道 (分行)\n更新存摺簿交易資料\n工商金融服務櫃檯\n支票存款"
    },
    {
        "atm_type": "hsbc",
        "bank_type": "匯豐銀行",
        "name": "匯豐銀行 天樂里9號(7-Eleven) 自動櫃員機",
        "area": "香港島",
        "district": "灣仔",
        "address": "香港灣仔天樂里9-17號兆豐大廈地下C舖7-Eleven便利店",
        "detail": null,
        "lat": "22.27825",
        "lng": "114.1799",
        "workHrs": null,
        "atm24": true,
        "service": "現金提款"
    },
    {
        "atm_type": "hsbc",
        "bank_type": "匯豐銀行",
        "name": "匯豐銀行 銅鑼灣理財易中心",
        "area": "香港島",
        "district": "灣仔",
        "address": "香港駱克道463至483號銅鑼灣廣埸二期地下G08號舖",
        "detail": null,
        "lat": "22.28028",
        "lng": "114.18192",
        "workHrs": null,
        "atm24": true,
        "service": "輪椅通道 (自動櫃員機)\n現金存款\n更新存摺簿交易資料\n支票存款\n現金提款 (港幣及人民幣)"
    },
    {
        "atm_type": "hsbc",
        "bank_type": "匯豐銀行",
        "name": "匯豐銀行 熙華大廈理財易中心",
        "area": "香港島",
        "district": "灣仔",
        "address": "香港灣仔軒尼詩道71-85熙華大廈地下",
        "detail": null,
        "lat": "22.277727",
        "lng": "114.171389",
        "workHrs": null,
        "atm24": true,
        "service": "輪椅通道 (自動櫃員機)\n現金存款\n更新存摺簿交易資料\n支票存款\n現金提款 (港幣及人民幣)"
    },
    {
        "atm_type": "hsbc",
        "bank_type": "匯豐銀行",
        "name": "匯豐銀行 時代廣場(L3)自動櫃員機",
        "area": "香港島",
        "district": "灣仔",
        "address": "香港銅鑼灣勿地臣街1號時代廣場3樓電梯E23及E24下(312號舖側)",
        "detail": null,
        "lat": "22.27842",
        "lng": "114.18223",
        "workHrs": {
            "monday": "10:00 - 22:00",
            "tuesday": "10:00 - 22:00",
            "wednesday": "10:00 - 22:00",
            "thursday": "10:00 - 22:00",
            "friday": "10:00 - 22:00",
            "saturday": "10:00 - 22:00",
            "sunday": "10:00 - 22:00"
        },
        "atm24": false,
        "service": "輪椅通道 (自動櫃員機)\n現金提款 (港幣及人民幣)"
    },
    {
        "atm_type": "hsbc",
        "bank_type": "匯豐銀行",
        "name": "匯豐銀行 時代廣場理財易中心",
        "area": "香港島",
        "district": "灣仔",
        "address": "香港銅鑼灣勿地臣街一號時代廣場地庫二樓(電梯E57&E58下)",
        "detail": null,
        "lat": "22.27843",
        "lng": "114.18248",
        "workHrs": {
            "monday": "07:00 - 00:00",
            "tuesday": "07:00 - 00:00",
            "wednesday": "07:00 - 00:00",
            "thursday": "07:00 - 00:00",
            "friday": "07:00 - 00:00",
            "saturday": "07:00 - 00:00",
            "sunday": "07:00 - 00:00"
        },
        "atm24": false,
        "service": "輪椅通道 (自動櫃員機)\n現金提款 (港幣及人民幣)"
    },
    {
        "atm_type": "hsbc",
        "bank_type": "匯豐銀行",
        "name": "匯豐銀行 希慎廣場理財易中心",
        "area": "香港島",
        "district": "灣仔",
        "address": "香港銅鑼灣軒尼詩道500號希慎廣場2樓217B號舖",
        "detail": null,
        "lat": "22.279851",
        "lng": "114.183808",
        "workHrs": {
            "monday": "10:00 - 22:00",
            "tuesday": "10:00 - 22:00",
            "wednesday": "10:00 - 22:00",
            "thursday": "10:00 - 22:00",
            "friday": "10:00 - 22:00",
            "saturday": "10:00 - 22:00",
            "sunday": "10:00 - 22:00"
        },
        "atm24": false,
        "service": "輪椅通道 (自動櫃員機)\n現金存款\n支票存款\n現金提款 (港幣及人民幣)"
    },
    {
        "atm_type": "hsbc",
        "bank_type": "匯豐銀行",
        "name": "匯豐銀行 世貿中心理財易中心",
        "area": "香港島",
        "district": "灣仔",
        "address": "香港銅鑼灣告士打道280號世貿中心地下G022室",
        "detail": null,
        "lat": "22.28176",
        "lng": "114.184149",
        "workHrs": null,
        "atm24": true,
        "service": "輪椅通道 (自動櫃員機)\n現金提款 (港幣及人民幣)"
    },
    {
        "atm_type": "hsbc",
        "bank_type": "匯豐銀行",
        "name": "匯豐銀行 禮頓道理財易中心",
        "area": "香港島",
        "district": "灣仔",
        "address": "香港禮頓道26號凱基商業大廈地下",
        "detail": null,
        "lat": "22.277213",
        "lng": "114.18314",
        "workHrs": null,
        "atm24": true,
        "service": "現金提款 (港幣及人民幣)"
    },
    {
        "atm_type": "hsbc",
        "bank_type": "匯豐銀行",
        "name": "匯豐銀行 警察總部自動櫃員機",
        "area": "香港島",
        "district": "灣仔",
        "address": "香港灣仔軍器廠街警政大樓香港警察總部",
        "detail": null,
        "lat": "22.27814",
        "lng": "114.1679",
        "workHrs": null,
        "atm24": true,
        "service": "現金提款\n輪椅通道 (自動櫃員機)"
    },
    {
        "atm_type": "hsbc",
        "bank_type": "匯豐銀行",
        "name": "匯豐銀行 雲景道理財易中心",
        "area": "香港島",
        "district": "東區",
        "address": "香港北角雲景道33號牛奶公司購物中心地下3A 舖",
        "detail": null,
        "lat": "22.28572",
        "lng": "114.19624",
        "workHrs": null,
        "atm24": true,
        "service": "現金提款"
    },
    {
        "atm_type": "hsbc",
        "bank_type": "匯豐銀行",
        "name": "匯豐銀行 電氣道理財易中心",
        "area": "香港島",
        "district": "東區",
        "address": "香港北角電氣道148號地下2號舖",
        "detail": null,
        "lat": "22.286486",
        "lng": "114.191632",
        "workHrs": null,
        "atm24": true,
        "service": "現金提款\n輪椅通道 (自動櫃員機)\n現金存款\n更新存摺簿交易資料\n支票存款"
    },
    {
        "atm_type": "hsbc",
        "bank_type": "匯豐銀行",
        "name": "匯豐銀行 百德新街理財易中心",
        "area": "香港島",
        "district": "灣仔",
        "address": "香港銅鑼灣百德新街2-20號 恒隆中心地下G03-04舖",
        "detail": null,
        "lat": "22.280149",
        "lng": "114.185947",
        "workHrs": null,
        "atm24": true,
        "service": "輪椅通道 (自動櫃員機)\n現金存款\n更新存摺簿交易資料\n支票存款\n現金提款 (港幣及人民幣)"
    },
    {
        "atm_type": "hsbc",
        "bank_type": "匯豐銀行",
        "name": "匯豐銀行 合和中心理財易中心",
        "area": "香港島",
        "district": "灣仔",
        "address": "香港灣仔皇后大道東183號合和中心地下4號舖",
        "detail": null,
        "lat": "22.274731",
        "lng": "114.171695",
        "workHrs": null,
        "atm24": true,
        "service": "輪椅通道 (自動櫃員機)\n現金存款\n更新存摺簿交易資料\n支票存款\n現金提款 (港幣及人民幣)"
    },
    {
        "atm_type": "hsbc",
        "bank_type": "匯豐銀行",
        "name": "匯豐銀行 跑馬地賽馬會理財易中心",
        "area": "香港島",
        "district": "灣仔",
        "address": "香港跑馬地體育道1號香港賽馬會總部地下出納處",
        "detail": null,
        "lat": "22.27509",
        "lng": "114.18098",
        "workHrs": null,
        "atm24": true,
        "service": "現金提款"
    },
    {
        "atm_type": "hsbc",
        "bank_type": "匯豐銀行",
        "name": "匯豐銀行 黃泥涌道 (7-Eleven) 自動櫃員機",
        "area": "香港島",
        "district": "灣仔",
        "address": "香港跑馬地黃泥涌道15號常德樓地下 7-Eleven便利店",
        "detail": null,
        "lat": "22.26965",
        "lng": "114.18409",
        "workHrs": null,
        "atm24": true,
        "service": "現金提款"
    },
    {
        "atm_type": "hsbc",
        "bank_type": "匯豐銀行",
        "name": "匯豐銀行 白建時道理財易中心",
        "area": "香港島",
        "district": "灣仔",
        "address": "香港白建時道5號牛奶公司購物商場",
        "detail": null,
        "lat": "22.27058",
        "lng": "114.19158",
        "workHrs": null,
        "atm24": true,
        "service": "現金提款\n輪椅通道 (自動櫃員機)"
    },
    {
        "atm_type": "hsbc",
        "bank_type": "匯豐銀行",
        "name": "匯豐銀行 政府大球場理財易中心",
        "area": "香港島",
        "district": "灣仔",
        "address": "香港掃桿埔東院道55號香港大球場",
        "detail": null,
        "lat": "22.27339",
        "lng": "114.18892",
        "workHrs": null,
        "atm24": true,
        "service": "現金提款"
    },
    {
        "atm_type": "hsbc",
        "bank_type": "匯豐銀行",
        "name": "匯豐銀行 跑馬地理財易中心",
        "area": "香港島",
        "district": "灣仔",
        "address": "香港跑馬地成和道45號日月大廈地下",
        "detail": null,
        "lat": "22.268891",
        "lng": "114.18624",
        "workHrs": null,
        "atm24": true,
        "service": "現金提款\n輪椅通道 (自動櫃員機)\n現金存款\n支票存款"
    },
    {
        "atm_type": "hsbc",
        "bank_type": "匯豐銀行",
        "name": "匯豐銀行 鰂魚涌理財易中心",
        "area": "香港島",
        "district": "東區",
        "address": "香港鰂魚涌英皇道971號地下",
        "detail": null,
        "lat": "22.28759",
        "lng": "114.21041",
        "workHrs": null,
        "atm24": true,
        "service": "輪椅通道 (自動櫃員機)\n現金存款\n更新存摺簿交易資料\n支票存款\n現金提款 (港幣及人民幣)"
    },
    {
        "atm_type": "hsbc",
        "bank_type": "匯豐銀行",
        "name": "匯豐銀行 藍田理財易中心",
        "area": "九龍",
        "district": "觀塘",
        "address": "九龍藍田滙景道8號滙景廣場第四層H 號舖",
        "detail": null,
        "lat": "22.30746",
        "lng": "114.23293",
        "workHrs": {
            "monday": "06:00 - 23:59",
            "tuesday": "06:00 - 23:59",
            "wednesday": "06:00 - 23:59",
            "thursday": "06:00 - 23:59",
            "friday": "06:00 - 23:59",
            "saturday": "06:00 - 23:59",
            "sunday": "06:00 - 23:59"
        },
        "atm24": false,
        "service": "現金提款\n輪椅通道 (自動櫃員機)\n現金存款\n更新存摺簿交易資料\n支票存款"
    },
    {
        "atm_type": "hsbc",
        "bank_type": "匯豐銀行",
        "name": "匯豐銀行 油麗邨自動櫃員機",
        "area": "九龍",
        "district": "觀塘",
        "address": "九龍油塘油麗邨三期豐麗樓升降機大樓底層",
        "detail": null,
        "lat": "22.300247",
        "lng": "114.236207",
        "workHrs": null,
        "atm24": true,
        "service": "現金提款\n輪椅通道 (自動櫃員機)"
    },
    {
        "atm_type": "hsbc",
        "bank_type": "匯豐銀行",
        "name": "匯豐銀行 啟田邨自動櫃員機",
        "area": "九龍",
        "district": "觀塘",
        "address": "九龍藍田啟田道啟田商場2樓櫃員機位2號",
        "detail": null,
        "lat": "22.30845",
        "lng": "114.23489",
        "workHrs": {
            "monday": "07:00 - 00:00",
            "tuesday": "07:00 - 00:00",
            "wednesday": "07:00 - 00:00",
            "thursday": "07:00 - 00:00",
            "friday": "07:00 - 00:00",
            "saturday": "07:00 - 00:00",
            "sunday": "07:00 - 00:00"
        },
        "atm24": false,
        "service": "現金提款\n輪椅通道 (自動櫃員機)"
    },
    {
        "atm_type": "hsbc",
        "bank_type": "匯豐銀行",
        "name": "匯豐銀行 彩明苑理財易中心",
        "area": "新界",
        "district": "西貢",
        "address": "新界將軍澳彩明苑彩明商場2樓264號舖",
        "detail": null,
        "lat": "22.30603",
        "lng": "114.25119",
        "workHrs": null,
        "atm24": true,
        "service": "現金提款\n輪椅通道 (自動櫃員機)"
    },
    {
        "atm_type": "hsbc",
        "bank_type": "匯豐銀行",
        "name": "匯豐銀行 將軍澳中心理財易中心",
        "area": "新界",
        "district": "西貢",
        "address": "新界將軍澳唐德街 9 號 將軍澳中心一樓108號舖",
        "detail": null,
        "lat": "22.30673",
        "lng": "114.25725",
        "workHrs": null,
        "atm24": true,
        "service": "現金提款\n輪椅通道 (自動櫃員機)\n現金存款\n更新存摺簿交易資料\n支票存款"
    },
    {
        "atm_type": "hsbc",
        "bank_type": "匯豐銀行",
        "name": "匯豐銀行 廣田邨自動櫃員機",
        "area": "九龍",
        "district": "觀塘",
        "address": "九龍藍田碧雲道168號廣田商場地下自動提款機1號",
        "detail": null,
        "lat": "22.30292",
        "lng": "114.23958",
        "workHrs": null,
        "atm24": true,
        "service": "現金提款\n輪椅通道 (自動櫃員機)"
    },
    {
        "atm_type": "hsbc",
        "bank_type": "匯豐銀行",
        "name": "匯豐銀行 鯉魚門廣場自動櫃員機",
        "area": "九龍",
        "district": "觀塘",
        "address": "九龍油塘鯉魚門80號鯉魚門廣場地下自動櫃員機4號",
        "detail": null,
        "lat": "22.295862",
        "lng": "114.238672",
        "workHrs": null,
        "atm24": true,
        "service": "現金提款\n輪椅通道 (自動櫃員機)"
    },
    {
        "atm_type": "hsbc",
        "bank_type": "匯豐銀行",
        "name": "匯豐銀行 大本型自動櫃員機",
        "area": "九龍",
        "district": "觀塘",
        "address": "九龍油塘大本型港鐵樓層升降機大堂側",
        "detail": null,
        "lat": "22.296676",
        "lng": "114.238077",
        "workHrs": null,
        "atm24": true,
        "service": "輪椅通道 (自動櫃員機)\n現金提款 (港幣及人民幣)"
    },
    {
        "atm_type": "hsbc",
        "bank_type": "匯豐銀行",
        "name": "匯豐銀行 港鐵油塘站理財易中心",
        "area": "九龍",
        "district": "觀塘",
        "address": "油塘站YAT 8號舖",
        "detail": null,
        "lat": "22.298367",
        "lng": "114.236673",
        "workHrs": {
            "monday": "05:59 - 01:28",
            "tuesday": "05:59 - 01:28",
            "wednesday": "05:59 - 01:28",
            "thursday": "05:59 - 01:28",
            "friday": "05:59 - 01:28",
            "saturday": "05:59 - 01:28",
            "sunday": "05:59 - 01:28"
        },
        "atm24": false,
        "service": "現金提款\n輪椅通道 (自動櫃員機)\n現金存款\n更新存摺簿交易資料\n支票存款"
    },
    {
        "atm_type": "hsbc",
        "bank_type": "匯豐銀行",
        "name": "匯豐銀行 平田邨自動櫃員機",
        "area": "九龍",
        "district": "觀塘",
        "address": "九龍平田邨平田商埸二樓自動櫃員機",
        "detail": null,
        "lat": "22.305952",
        "lng": "114.237149",
        "workHrs": null,
        "atm24": true,
        "service": "現金提款\n輪椅通道 (自動櫃員機)"
    },
    {
        "atm_type": "hsbc",
        "bank_type": "匯豐銀行",
        "name": "匯豐銀行 興東邨自動櫃員機",
        "area": "香港島",
        "district": "東區",
        "address": "香港筲箕灣興東邨興東邨商場1樓1號自動櫃員機",
        "detail": null,
        "lat": "22.28078",
        "lng": "114.22012",
        "workHrs": null,
        "atm24": true,
        "service": "現金提款\n輪椅通道 (自動櫃員機)"
    },
    {
        "atm_type": "hsbc",
        "bank_type": "匯豐銀行",
        "name": "匯豐銀行 耀東邨理財易中心",
        "area": "香港島",
        "district": "東區",
        "address": "香港筲箕灣耀東購物中心5A號舖",
        "detail": null,
        "lat": "22.27732",
        "lng": "114.22433",
        "workHrs": null,
        "atm24": true,
        "service": "現金提款"
    },
    {
        "atm_type": "hsbc",
        "bank_type": "匯豐銀行",
        "name": "匯豐銀行 筲箕灣理財易中心",
        "area": "香港島",
        "district": "東區",
        "address": "香港筲箕灣筲箕灣道324號潤民商業中心",
        "detail": null,
        "lat": "22.278965",
        "lng": "114.226034",
        "workHrs": null,
        "atm24": true,
        "service": "現金提款\n輪椅通道 (自動櫃員機)\n現金存款\n更新存摺簿交易資料\n支票存款"
    },
    {
        "atm_type": "hsbc",
        "bank_type": "匯豐銀行",
        "name": "匯豐銀行 西灣河理財易中心",
        "area": "香港島",
        "district": "東區",
        "address": "香港西灣河筲箕灣道65-67號太安樓",
        "detail": null,
        "lat": "22.28266",
        "lng": "114.22182",
        "workHrs": null,
        "atm24": true,
        "service": "現金提款\n輪椅通道 (自動櫃員機)\n現金存款\n更新存摺簿交易資料\n支票存款"
    },
    {
        "atm_type": "hsbc",
        "bank_type": "匯豐銀行",
        "name": "匯豐銀行 愛東邨自動櫃員機",
        "area": "香港島",
        "district": "東區",
        "address": "香港筲箕灣愛東邨愛東商場1樓109號舖側空地",
        "detail": null,
        "lat": "22.28093",
        "lng": "114.22782",
        "workHrs": {
            "monday": "07:00 - 23:30",
            "tuesday": "07:00 - 23:30",
            "wednesday": "07:00 - 23:30",
            "thursday": "07:00 - 23:30",
            "friday": "07:00 - 23:30",
            "saturday": "07:00 - 23:30",
            "sunday": "07:00 - 23:30"
        },
        "atm24": false,
        "service": "現金提款\n輪椅通道 (自動櫃員機)"
    },
    {
        "atm_type": "hsbc",
        "bank_type": "匯豐銀行",
        "name": "匯豐銀行 愛蝶灣理財易中心",
        "area": "香港島",
        "district": "東區",
        "address": "香港筲箕灣愛禮街2號愛蝶灣地下50號舖",
        "detail": null,
        "lat": "22.28014",
        "lng": "114.22846",
        "workHrs": null,
        "atm24": true,
        "service": "現金提款\n輪椅通道 (自動櫃員機)\n現金存款\n更新存摺簿交易資料"
    },
    {
        "atm_type": "hsbc",
        "bank_type": "匯豐銀行",
        "name": "匯豐銀行 太古城中心理財易中心",
        "area": "香港島",
        "district": "東區",
        "address": "香港鰂魚涌太古城中心第1期065號舖",
        "detail": null,
        "lat": "22.285994",
        "lng": "114.217005",
        "workHrs": null,
        "atm24": true,
        "service": "輪椅通道 (自動櫃員機)\n現金存款\n更新存摺簿交易資料\n支票存款\n現金提款 (港幣及人民幣)"
    },
    {
        "atm_type": "hsbc",
        "bank_type": "匯豐銀行",
        "name": "匯豐銀行 惠安苑理財易中心",
        "area": "香港島",
        "district": "東區",
        "address": "香港鰂魚涌英皇道1037號",
        "detail": null,
        "lat": "22.28488",
        "lng": "114.213357",
        "workHrs": null,
        "atm24": true,
        "service": "現金提款\n輪椅通道 (自動櫃員機)\n現金存款\n更新存摺簿交易資料\n支票存款"
    },
    {
        "atm_type": "hsbc",
        "bank_type": "匯豐銀行",
        "name": "匯豐銀行 興民邨自動櫃員機",
        "area": "香港島",
        "district": "東區",
        "address": "香港興民邨興民商場四樓自動櫃員機1號",
        "detail": null,
        "lat": "22.267736",
        "lng": "114.233077",
        "workHrs": null,
        "atm24": true,
        "service": "現金提款\n輪椅通道 (自動櫃員機)"
    },
    {
        "atm_type": "hsbc",
        "bank_type": "匯豐銀行",
        "name": "匯豐銀行 東區醫院理財易中心",
        "area": "香港島",
        "district": "東區",
        "address": "香港柴灣東區尤德夫人那打素醫院地下",
        "detail": null,
        "lat": "22.2695",
        "lng": "114.23634",
        "workHrs": null,
        "atm24": true,
        "service": "現金提款\n輪椅通道 (自動櫃員機)"
    },
    {
        "atm_type": "hsbc",
        "bank_type": "匯豐銀行",
        "name": "匯豐銀行 杏花邨理財易中心",
        "area": "香港島",
        "district": "東區",
        "address": "香港柴灣杏花新城東翼商場209號舖",
        "detail": null,
        "lat": "22.275905",
        "lng": "114.24047",
        "workHrs": {
            "monday": "06:00 - 00:00",
            "tuesday": "06:00 - 00:00",
            "wednesday": "06:00 - 00:00",
            "thursday": "06:00 - 00:00",
            "friday": "06:00 - 00:00",
            "saturday": "06:00 - 00:00",
            "sunday": "06:00 - 00:00"
        },
        "atm24": false,
        "service": "現金提款\n輪椅通道 (自動櫃員機)\n現金存款\n更新存摺簿交易資料\n支票存款"
    },
    {
        "atm_type": "hsbc",
        "bank_type": "匯豐銀行",
        "name": "匯豐銀行 柴灣投注站理財易中心",
        "area": "香港島",
        "district": "東區",
        "address": "香港柴灣常安街77號地下",
        "detail": null,
        "lat": "22.26748",
        "lng": "114.24358",
        "workHrs": null,
        "atm24": true,
        "service": "現金提款"
    },
    {
        "atm_type": "hsbc",
        "bank_type": "匯豐銀行",
        "name": "匯豐銀行 翠灣邨自動櫃員機",
        "area": "香港島",
        "district": "東區",
        "address": "香港柴灣翠灣邨辦事處大樓翠灣商業中心地下1號自動櫃員機",
        "detail": null,
        "lat": "22.2682",
        "lng": "114.2401",
        "workHrs": null,
        "atm24": true,
        "service": "現金提款\n輪椅通道 (自動櫃員機)"
    },
    {
        "atm_type": "hsbc",
        "bank_type": "匯豐銀行",
        "name": "匯豐銀行 警察訓練學校自動櫃員機",
        "area": "香港島",
        "district": "南區",
        "address": "香港香港仔海洋公園道18號警察訓練學校",
        "detail": null,
        "lat": "22.24594",
        "lng": "114.17315",
        "workHrs": null,
        "atm24": true,
        "service": "現金提款"
    },
    {
        "atm_type": "hsbc",
        "bank_type": "匯豐銀行",
        "name": "匯豐銀行 One Island South 自動櫃員機",
        "area": "香港島",
        "district": "南區",
        "address": "香港黃竹坑香葉道2號One Island South1樓102-103號舖對面",
        "detail": null,
        "lat": "22.249044",
        "lng": "114.169085",
        "workHrs": null,
        "atm24": true,
        "service": "現金提款\n輪椅通道 (自動櫃員機)"
    },
    {
        "atm_type": "hsbc",
        "bank_type": "匯豐銀行",
        "name": "匯豐銀行 海洋公園理財易中心",
        "area": "香港島",
        "district": "南區",
        "address": "香港仔海洋公圉入口平台西翼",
        "detail": null,
        "lat": "22.246621",
        "lng": "114.176147",
        "workHrs": {
            "monday": "10:00 - 18:00",
            "tuesday": "10:00 - 18:00",
            "wednesday": "10:00 - 18:00",
            "thursday": "10:00 - 18:00",
            "friday": "10:00 - 18:00",
            "saturday": "10:00 - 18:00",
            "sunday": "10:00 - 18:00"
        },
        "atm24": false,
        "service": "現金提款\n輪椅通道 (自動櫃員機)"
    },
    {
        "atm_type": "hsbc",
        "bank_type": "匯豐銀行",
        "name": "匯豐銀行 鴨脷洲大街理財易中心",
        "area": "香港島",
        "district": "南區",
        "address": "香港仔鴨脷洲大街33號順景閣地下D舖",
        "detail": null,
        "lat": "22.24432",
        "lng": "114.15668",
        "workHrs": null,
        "atm24": true,
        "service": "現金提款"
    },
    {
        "atm_type": "hsbc",
        "bank_type": "匯豐銀行",
        "name": "匯豐銀行 利東邨理財易中心",
        "area": "香港島",
        "district": "南區",
        "address": "香港鴨脷洲利東邨商場1期208A舖",
        "detail": null,
        "lat": "22.24092",
        "lng": "114.15598",
        "workHrs": null,
        "atm24": true,
        "service": "現金提款"
    },
    {
        "atm_type": "hsbc",
        "bank_type": "匯豐銀行",
        "name": "匯豐銀行 石排灣邨自動櫃員機",
        "area": "香港島",
        "district": "南區",
        "address": "香港香港仔石排灣邨石排灣商場低層1樓2號舖側空地",
        "detail": null,
        "lat": "22.24947",
        "lng": "114.15735",
        "workHrs": null,
        "atm24": true,
        "service": "現金提款\n輪椅通道 (自動櫃員機)"
    },
    {
        "atm_type": "hsbc",
        "bank_type": "匯豐銀行",
        "name": "匯豐銀行 香港仔理財易中心",
        "area": "香港島",
        "district": "南區",
        "address": "香港香港仔成都道20-28號添喜大廈1樓6號舖",
        "detail": null,
        "lat": "22.248759",
        "lng": "114.154963",
        "workHrs": null,
        "atm24": true,
        "service": "現金提款\n輪椅通道 (自動櫃員機)\n現金存款\n更新存摺簿交易資料\n支票存款"
    },
    {
        "atm_type": "hsbc",
        "bank_type": "匯豐銀行",
        "name": "匯豐銀行 香港仔中心理財易中心",
        "area": "香港島",
        "district": "南區",
        "address": "香港香港仔香港仔中心第1期地下2號舖",
        "detail": null,
        "lat": "22.249069",
        "lng": "114.153489",
        "workHrs": null,
        "atm24": true,
        "service": "現金提款\n輪椅通道 (自動櫃員機)\n現金存款\n更新存摺簿交易資料\n支票存款"
    },
    {
        "atm_type": "hsbc",
        "bank_type": "匯豐銀行",
        "name": "匯豐銀行 田灣邨理財易中心",
        "area": "香港島",
        "district": "南區",
        "address": "香港香港仔田灣邨田灣商場101號舖",
        "detail": null,
        "lat": "22.25103",
        "lng": "114.14957",
        "workHrs": null,
        "atm24": true,
        "service": "現金提款\n輪椅通道 (自動櫃員機)"
    },
    {
        "atm_type": "hsbc",
        "bank_type": "匯豐銀行",
        "name": "匯豐銀行 海怡半島分行",
        "area": "香港",
        "district": "南區",
        "address": "香港鴨脷洲海怡半島廣場西翼商場地下G14號舖",
        "detail": null,
        "lat": "22.24402",
        "lng": "114.14723",
        "workHrs": {
            "monday": "09:00 - 16:30",
            "tuesday": "09:00 - 16:30",
            "wednesday": "09:00 - 16:30",
            "thursday": "09:00 - 16:30",
            "friday": "09:00 - 17:00",
            "saturday": "09:00 - 13:00",
            "sunday": "-"
        },
        "atm24": false,
        "service": "現金提款\n外幣兌換服務\n輪椅通道 (自動櫃員機)\n匯豐卓越理財服務櫃檯\n現金存款\n網上理財服務\n輪椅通道 (分行)\n更新存摺簿交易資料\n匯豐運籌理財服務櫃檯\n支票存款"
    },
    {
        "atm_type": "hsbc",
        "bank_type": "匯豐銀行",
        "name": "匯豐銀行 海怡半島理財易中心",
        "area": "香港島",
        "district": "南區",
        "address": "鴨脷洲海怡半島廣場西翼商場地下G14號舖",
        "detail": null,
        "lat": "22.244",
        "lng": "114.146683",
        "workHrs": null,
        "atm24": true,
        "service": "現金提款\n輪椅通道 (自動櫃員機)\n現金存款\n更新存摺簿交易資料\n支票存款"
    },
    {
        "atm_type": "hsbc",
        "bank_type": "匯豐銀行",
        "name": "匯豐銀行 淺水灣自動櫃員機",
        "area": "香港島",
        "district": "南區",
        "address": "香港淺水灣道109號影灣園地下1號攤位",
        "detail": null,
        "lat": "22.23896",
        "lng": "114.1959",
        "workHrs": null,
        "atm24": true,
        "service": "現金提款\n輪椅通道 (自動櫃員機)"
    },
    {
        "atm_type": "hsbc",
        "bank_type": "匯豐銀行",
        "name": "匯豐銀行 華富邨理財易中心",
        "area": "香港島",
        "district": "南區",
        "address": "香港薄扶林華富邨華珍樓718號舖",
        "detail": null,
        "lat": "22.25043",
        "lng": "114.13625",
        "workHrs": null,
        "atm24": true,
        "service": "現金提款\n輪椅通道 (自動櫃員機)"
    },
    {
        "atm_type": "hsbc",
        "bank_type": "匯豐銀行",
        "name": "匯豐銀行 置富花園理財易中心",
        "area": "香港島",
        "district": "南區",
        "address": "香港薄扶林置富南區廣場第五層 527-528號舖",
        "detail": null,
        "lat": "22.25788",
        "lng": "114.13875",
        "workHrs": {
            "monday": "07:00 - 23:00",
            "tuesday": "07:00 - 23:00",
            "wednesday": "07:00 - 23:00",
            "thursday": "07:00 - 23:00",
            "friday": "07:00 - 23:00",
            "saturday": "07:00 - 23:00",
            "sunday": "07:00 - 23:00"
        },
        "atm24": false,
        "service": "現金提款\n現金存款\n更新存摺簿交易資料"
    },
    {
        "atm_type": "hsbc",
        "bank_type": "匯豐銀行",
        "name": "匯豐銀行 陽明山莊理財易中心",
        "area": "香港島",
        "district": "南區",
        "address": "大潭水塘道88號陽明山莊",
        "detail": null,
        "lat": "22.25798",
        "lng": "114.19896",
        "workHrs": null,
        "atm24": true,
        "service": "現金提款"
    },
    {
        "atm_type": "hsbc",
        "bank_type": "匯豐銀行",
        "name": "匯豐銀行 興華(一)邨自動櫃員機",
        "area": "香港島",
        "district": "東區",
        "address": "香港柴灣興華(一)邨興華商埸2樓入口側空地",
        "detail": null,
        "lat": "22.26287",
        "lng": "114.23537",
        "workHrs": {
            "monday": "06:00 - 01:00",
            "tuesday": "06:00 - 01:00",
            "wednesday": "06:00 - 01:00",
            "thursday": "06:00 - 01:00",
            "friday": "06:00 - 01:00",
            "saturday": "06:00 - 01:00",
            "sunday": "06:00 - 01:00"
        },
        "atm24": false,
        "service": "現金提款\n輪椅通道 (自動櫃員機)"
    },
    {
        "atm_type": "hsbc",
        "bank_type": "匯豐銀行",
        "name": "匯豐銀行 環翠邨自動櫃員機",
        "area": "香港島",
        "district": "東區",
        "address": "香港環翠邨環翠商場一樓自動櫃員機1號",
        "detail": null,
        "lat": "22.262896",
        "lng": "114.237648",
        "workHrs": null,
        "atm24": true,
        "service": "現金提款\n輪椅通道 (自動櫃員機)"
    },
    {
        "atm_type": "hsbc",
        "bank_type": "匯豐銀行",
        "name": "匯豐銀行 柴灣理財易中心",
        "area": "香港島",
        "district": "東區",
        "address": "香港柴灣宏德居B座地下73-74 號舖",
        "detail": null,
        "lat": "22.26406",
        "lng": "114.24005",
        "workHrs": null,
        "atm24": true,
        "service": "現金提款\n輪椅通道 (自動櫃員機)\n現金存款\n更新存摺簿交易資料\n支票存款"
    },
    {
        "atm_type": "hsbc",
        "bank_type": "匯豐銀行",
        "name": "匯豐銀行 小西灣理財易中心",
        "area": "香港島",
        "district": "東區",
        "address": "香港小西灣小西灣商場108A號舖",
        "detail": null,
        "lat": "22.2628",
        "lng": "114.24856",
        "workHrs": null,
        "atm24": true,
        "service": "現金提款"
    },
    {
        "atm_type": "hsbc",
        "bank_type": "匯豐銀行",
        "name": "匯豐銀行 赤柱廣場自動櫃員機",
        "area": "香港島",
        "district": "南區",
        "address": "香港赤柱赤柱廣場三樓二號自動櫃員機",
        "detail": null,
        "lat": "22.219588",
        "lng": "114.209623",
        "workHrs": null,
        "atm24": true,
        "service": "現金提款\n現金存款"
    }
]